$GPGGA,074137.798,5159.5638,N,00422.2151,E,1,15,0.6,20.9,M,47.1,M,,*64
$GPGLL,5159.5638,N,00422.2151,E,074137.798,A,A*5A
$GPVTG,0.0,T,,M,3.0,N,5.5,K,A*0E
$GPGSV,3,1,10,02,17,039,41,04,10,330,33,12,13,103,30,16,03,285,25*78
$GPGSV,3,2,10,18,20,172,32,20,12,083,42,25,48,106,35,26,31,289,34*73
$GPGSV,3,3,10,29,83,096,34,31,59,264,29*75
$GLGSV,2,1,05,71,07,019,41,78,76,129,36,79,46,315,43,87,42,040,43*68
$GLGSV,2,2,05,88,78,113,35*5A
$GPGSA,A,3,29,31,25,26,18,02,12,20,04,16,,,1.0,0.6,0.8*3E
$GNGSA,A,3,71,78,79,87,88,,,,,,,,1.0,0.6,0.8*2B
$GPRMC,074137.798,A,5159.5638,N,00422.2151,E,3.0,0.0,260621,,,A*6F
$GPGGA,074138.799,5159.5503,N,00422.2071,E,1,14,0.8,-5.5,M,47.1,M,,*7B
$GPGLL,5159.5503,N,00422.2071,E,074138.799,A,A*5C
$GPVTG,0.0,T,,M,0.3,N,0.5,K,A*0B
$GPGSV,3,1,10,02,17,039,41,04,10,330,33,12,13,103,30,16,03,285,24*79
$GPGSV,3,2,10,18,20,172,32,20,12,083,42,25,48,106,35,26,31,289,35*72
$GPGSV,3,3,10,29,83,096,36,31,59,264,29*77
$GLGSV,2,1,05,71,07,019,41,78,76,129,36,79,46,315,43,87,42,040,43*68
$GLGSV,2,2,05,88,78,113,36*59
$BDGSV,1,1,02,208,27,036,38,223,04,100,36*68
$GPGSA,A,3,29,31,25,26,18,02,12,20,04,,,,1.2,0.8,0.8*35
$GNGSA,A,3,71,78,79,87,88,,,,,,,,1.2,0.8,0.8*27
$GPRMC,074138.799,A,5159.5503,N,00422.2071,E,0.3,0.0,260621,,,A*69
$GPGGA,074139.800,5159.5513,N,00422.2098,E,1,16,0.6,7.0,M,47.1,M,,*55
$GPGLL,5159.5513,N,00422.2098,E,074139.800,A,A*54
$GPVTG,0.0,T,,M,0.2,N,0.3,K,A*0C
$GPGSV,3,1,10,02,17,039,42,04,10,330,34,12,13,103,30,16,03,285,22*7B
$GPGSV,3,2,10,18,20,172,33,20,12,083,42,25,48,106,35,26,31,289,35*73
$GPGSV,3,3,10,29,83,096,36,31,59,264,30*7F
$GLGSV,2,1,07,70,12,332,27,71,07,019,41,77,19,133,28,78,76,129,36*6C
$GLGSV,2,2,07,79,46,315,43,87,42,040,42,88,78,113,36*5C
$BDGSV,1,1,02,208,27,036,38,223,04,100,36*68
$GPGSA,A,3,29,31,25,26,18,02,12,20,04,,,,1.0,0.6,0.8*39
$GNGSA,A,3,70,71,77,78,79,87,88,,,,,,1.0,0.6,0.8*2C
$GPRMC,074139.800,A,5159.5513,N,00422.2098,E,0.2,0.0,260621,,,A*60
$GPGGA,074140.807,5159.5548,N,00422.2098,E,1,17,0.6,2.8,M,47.1,M,,*5E
$GPGLL,5159.5548,N,00422.2098,E,074140.807,A,A*53
$GPVTG,0.0,T,,M,1.0,N,1.9,K,A*04
$GPGSV,3,1,10,02,17,039,42,04,10,330,35,12,13,103,30,16,03,285,21*79
$GPGSV,3,2,10,18,20,172,33,20,12,083,42,25,48,106,35,26,31,289,35*73
$GPGSV,3,3,10,29,83,096,36,31,59,264,30*7F
$GLGSV,2,1,08,70,12,332,27,71,07,019,41,77,19,133,27,78,76,129,34*6E
$GLGSV,2,2,08,79,46,315,43,81,33,201,24,87,42,040,42,88,78,113,35*6C
$BDGSV,1,1,02,208,27,036,38,223,04,100,36*68
$GPGSA,A,3,29,31,25,26,18,02,12,20,04,,,,1.0,0.6,0.8*39
$GNGSA,A,3,70,71,77,78,79,81,87,88,,,,,1.0,0.6,0.8*25
$GPRMC,074140.807,A,5159.5548,N,00422.2098,E,1.0,0.0,260621,,,A*64
$GPGGA,074141.801,5159.5521,N,00422.2122,E,1,17,0.6,7.9,M,47.1,M,,*52
$GPGLL,5159.5521,N,00422.2122,E,074141.801,A,A*5B
$GPVTG,0.0,T,,M,0.9,N,1.6,K,A*03
$GPGSV,3,1,10,02,17,039,41,04,10,330,34,12,13,103,29,16,03,285,19*78
$GPGSV,3,2,10,18,20,172,33,20,12,083,41,25,48,106,35,26,31,289,34*71
$GPGSV,3,3,10,29,83,096,36,31,59,264,30*7F
$GLGSV,2,1,08,70,12,332,27,71,07,019,41,77,19,133,27,78,76,129,33*69
$GLGSV,2,2,08,79,46,315,42,81,33,201,26,87,42,040,42,88,78,113,35*6F
$BDGSV,1,1,02,208,27,036,37,223,04,100,35*64
$GPGSA,A,3,29,31,25,26,18,02,12,20,04,,,,1.0,0.6,0.8*39
$GNGSA,A,3,70,71,77,78,79,81,87,88,,,,,1.0,0.6,0.8*25
$GPRMC,074141.801,A,5159.5521,N,00422.2122,E,0.9,0.0,260621,,,A*64
$GPGGA,074142.802,5159.5541,N,00422.2185,E,1,15,0.6,15.4,M,47.1,M,,*65
$GPGLL,5159.5541,N,00422.2185,E,074142.802,A,A*50
$GPVTG,341.8,T,,M,1.2,N,2.2,K,A*00
$GPGSV,3,1,10,02,17,039,41,04,10,330,33,12,13,103,28,16,03,285,18*7F
$GPGSV,3,2,10,18,20,172,32,20,12,083,41,25,48,106,35,26,31,289,33*77
$GPGSV,3,3,10,29,83,096,35,31,59,264,29*74
$GLGSV,2,1,08,70,12,332,26,71,07,019,39,77,19,133,26,78,76,129,33*66
$GLGSV,2,2,08,79,46,315,40,81,33,201,28,87,42,040,41,88,78,113,34*61
$BDGSV,1,1,02,208,27,036,36,223,04,100,35*65
$GPGSA,A,3,29,31,25,26,18,02,12,20,04,,,,1.0,0.6,0.8*39
$GNGSA,A,3,71,78,79,81,87,88,,,,,,,1.0,0.6,0.8*22
$GPRMC,074142.802,A,5159.5541,N,00422.2185,E,1.2,341.8,260621,,,A*6B
$GPGGA,074143.306,5159.5522,N,00422.2083,E,1,16,0.6,-3.8,M,47.1,M,,*7C
$GPGLL,5159.5522,N,00422.2083,E,074143.306,A,A*5C
$GPVTG,341.8,T,,M,0.5,N,1.0,K,A*07
$GPGSV,3,1,10,02,17,039,40,04,10,330,32,12,13,103,27,16,03,285,16*7E
$GPGSV,3,2,10,18,20,172,32,20,12,083,40,25,48,106,35,26,31,289,32*77
$GPGSV,3,3,10,29,83,096,34,31,59,264,29*75
$GLGSV,2,1,08,70,12,332,25,71,07,019,38,77,19,133,24,78,75,130,32*6C
$GLGSV,2,2,08,79,46,315,39,81,34,201,34,87,42,040,41,88,78,113,34*65
$BDGSV,1,1,02,208,27,036,35,223,03,100,35*61
$GPGSA,A,3,29,31,25,26,18,02,12,20,04,,,,1.0,0.6,0.8*39
$GNGSA,A,3,70,71,78,79,81,87,88,,,,,,1.0,0.6,0.8*25
$GPRMC,074143.306,A,5159.5522,N,00422.2083,E,0.5,341.8,260621,,,A*61
$GPGGA,074143.404,5159.5525,N,00422.2076,E,1,15,0.6,0.6,M,47.1,M,,*57
$GPGLL,5159.5525,N,00422.2076,E,074143.404,A,A*54
$GPVTG,341.8,T,,M,0.7,N,1.3,K,A*06
$GPGSV,3,1,10,02,17,039,40,04,10,330,31,12,13,103,27,16,03,285,15*7E
$GPGSV,3,2,10,18,20,172,32,20,12,083,40,25,48,106,34,26,31,289,31*75
$GPGSV,3,3,10,29,83,096,34,31,59,264,28*74
$GLGSV,2,1,08,70,12,332,24,71,07,019,37,77,19,133,23,78,75,130,32*65
$GLGSV,2,2,08,79,46,315,38,81,34,201,36,87,42,040,40,88,78,113,33*60
$BDGSV,1,1,02,208,27,036,34,223,03,100,35*60
$GPGSA,A,3,29,31,25,26,18,02,12,20,04,,,,1.0,0.6,0.8*39
$GNGSA,A,3,71,78,79,81,87,88,,,,,,,1.0,0.6,0.8*22
$GPRMC,074143.404,A,5159.5525,N,00422.2076,E,0.7,341.8,260621,,,A*6B
$GPGGA,074144.000,5159.5523,N,00422.2064,E,1,15,0.6,-2.3,M,47.1,M,,*7F
$GPGLL,5159.5523,N,00422.2064,E,074144.000,A,A*56
$GPVTG,341.8,T,,M,0.2,N,0.4,K,A*05
$GPGSV,3,1,10,02,17,039,39,04,10,330,31,12,13,103,26,16,03,285,13*77
$GPGSV,3,2,10,18,20,172,36,20,12,083,39,25,48,106,34,26,31,289,31*7F