$GPGGA,074137.798,5159.5638,N,00422.2151,E,1,15,0.6,20.9,M,47.1,M,,*64
$GPGLL,5159.5638,N,00422.2151,E,074137.798,A,A*5A
$GPVTG,0.0,T,,M,3.0,N,5.5,K,A*0E
$GPGSV,3,1,10,02,17,039,41,04,10,330,33,12,13,103,30,16,03,285,25*78
$GPGSV,3,2,10,18,20,172,32,20,12,083,42,25,48,106,35,26,31,289,34*73
$GPGSV,3,3,10,29,83,096,34,31,59,264,29*75
$GLGSV,2,1,05,71,07,019,41,78,76,129,36,79,46,315,43,87,42,040,43*68
$GLGSV,2,2,05,88,78,113,35*5A
$GPGSA,A,3,29,31,25,26,18,02,12,20,04,16,,,1.0,0.6,0.8*3E
$GNGSA,A,3,71,78,79,87,88,,,,,,,,1.0,0.6,0.8*2B
$GPRMC,074137.798,A,5159.5638,N,00422.2151,E,3.0,0.0,260621,,,A*6F
$GPGGA,074138.799,5159.5503,N,00422.2071,E,1,14,0.8,-5.5,M,47.1,M,,*7B
$GPGLL,5159.5503,N,00422.2071,E,074138.799,A,A*5C
$GPVTG,0.0,T,,M,0.3,N,0.5,K,A*0B
$GPGSV,3,1,10,02,17,039,41,04,10,330,33,12,13,103,30,16,03,285,24*79
$GPGSV,3,2,10,18,20,172,32,20,12,083,42,25,48,106,35,26,31,289,35*72
$GPGSV,3,3,10,29,83,096,36,31,59,264,29*77
$GLGSV,2,1,05,71,07,019,41,78,76,129,36,79,46,315,43,87,42,040,43*68
$GLGSV,2,2,05,88,78,113,36*59
$BDGSV,1,1,02,208,27,036,38,223,04,100,36*68
$GPGSA,A,3,29,31,25,26,18,02,12,20,04,,,,1.2,0.8,0.8*35
$GNGSA,A,3,71,78,79,87,88,,,,,,,,1.2,0.8,0.8*27
$GPRMC,074138.799,A,5159.5503,N,00422.2071,E,0.3,0.0,260621,,,A*69
$GPGGA,074139.800,5159.5513,N,00422.2098,E,1,16,0.6,7.0,M,47.1,M,,*55
$GPGLL,5159.5513,N,00422.2098,E,074139.800,A,A*54
$GPVTG,0.0,T,,M,0.2,N,0.3,K,A*0C
$GPGSV,3,1,10,02,17,039,42,04,10,330,34,12,13,103,30,16,03,285,22*7B
$GPGSV,3,2,10,18,20,172,33,20,12,083,42,25,48,106,35,26,31,289,35*73
$GPGSV,3,3,10,29,83,096,36,31,59,264,30*7F
$GLGSV,2,1,07,70,12,332,27,71,07,019,41,77,19,133,28,78,76,129,36*6C
$GLGSV,2,2,07,79,46,315,43,87,42,040,42,88,78,113,36*5C
$BDGSV,1,1,02,208,27,036,38,223,04,100,36*68
$GPGSA,A,3,29,31,25,26,18,02,12,20,04,,,,1.0,0.6,0.8*39
$GNGSA,A,3,70,71,77,78,79,87,88,,,,,,1.0,0.6,0.8*2C
$GPRMC,074139.800,A,5159.5513,N,00422.2098,E,0.2,0.0,260621,,,A*60
$GPGGA,074140.807,5159.5548,N,00422.2098,E,1,17,0.6,2.8,M,47.1,M,,*5E
$GPGLL,5159.5548,N,00422.2098,E,074140.807,A,A*53
$GPVTG,0.0,T,,M,1.0,N,1.9,K,A*04
$GPGSV,3,1,10,02,17,039,42,04,10,330,35,12,13,103,30,16,03,285,21*79
$GPGSV,3,2,10,18,20,172,33,20,12,083,42,25,48,106,35,26,31,289,35*73
$GPGSV,3,3,10,29,83,096,36,31,59,264,30*7F
$GLGSV,2,1,08,70,12,332,27,71,07,019,41,77,19,133,27,78,76,129,34*6E
$GLGSV,2,2,08,79,46,315,43,81,33,201,24,87,42,040,42,88,78,113,35*6C
$BDGSV,1,1,02,208,27,036,38,223,04,100,36*68
$GPGSA,A,3,29,31,25,26,18,02,12,20,04,,,,1.0,0.6,0.8*39
$GNGSA,A,3,70,71,77,78,79,81,87,88,,,,,1.0,0.6,0.8*25
$GPRMC,074140.807,A,5159.5548,N,00422.2098,E,1.0,0.0,260621,,,A*64
$GPGGA,074141.801,5159.5521,N,00422.2122,E,1,17,0.6,7.9,M,47.1,M,,*52
$GPGLL,5159.5521,N,00422.2122,E,074141.801,A,A*5B
$GPVTG,0.0,T,,M,0.9,N,1.6,K,A*03
$GPGSV,3,1,10,02,17,039,41,04,10,330,34,12,13,103,29,16,03,285,19*78
$GPGSV,3,2,10,18,20,172,33,20,12,083,41,25,48,106,35,26,31,289,34*71
$GPGSV,3,3,10,29,83,096,36,31,59,264,30*7F
$GLGSV,2,1,08,70,12,332,27,71,07,019,41,77,19,133,27,78,76,129,33*69
$GLGSV,2,2,08,79,46,315,42,81,33,201,26,87,42,040,42,88,78,113,35*6F
$BDGSV,1,1,02,208,27,036,37,223,04,100,35*64
$GPGSA,A,3,29,31,25,26,18,02,12,20,04,,,,1.0,0.6,0.8*39
$GNGSA,A,3,70,71,77,78,79,81,87,88,,,,,1.0,0.6,0.8*25
$GPRMC,074141.801,A,5159.5521,N,00422.2122,E,0.9,0.0,260621,,,A*64
$GPGGA,074142.802,5159.5541,N,00422.2185,E,1,15,0.6,15.4,M,47.1,M,,*65
$GPGLL,5159.5541,N,00422.2185,E,074142.802,A,A*50
$GPVTG,341.8,T,,M,1.2,N,2.2,K,A*00
$GPGSV,3,1,10,02,17,039,41,04,10,330,33,12,13,103,28,16,03,285,18*7F
$GPGSV,3,2,10,18,20,172,32,20,12,083,41,25,48,106,35,26,31,289,33*77
$GPGSV,3,3,10,29,83,096,35,31,59,264,29*74
$GLGSV,2,1,08,70,12,332,26,71,07,019,39,77,19,133,26,78,76,129,33*66
$GLGSV,2,2,08,79,46,315,40,81,33,201,28,87,42,040,41,88,78,113,34*61
$BDGSV,1,1,02,208,27,036,36,223,04,100,35*65
$GPGSA,A,3,29,31,25,26,18,02,12,20,04,,,,1.0,0.6,0.8*39
$GNGSA,A,3,71,78,79,81,87,88,,,,,,,1.0,0.6,0.8*22
$GPRMC,074142.802,A,5159.5541,N,00422.2185,E,1.2,341.8,260621,,,A*6B
$GPGGA,074143.306,5159.5522,N,00422.2083,E,1,16,0.6,-3.8,M,47.1,M,,*7C
$GPGLL,5159.5522,N,00422.2083,E,074143.306,A,A*5C
$GPVTG,341.8,T,,M,0.5,N,1.0,K,A*07
$GPGSV,3,1,10,02,17,039,40,04,10,330,32,12,13,103,27,16,03,285,16*7E
$GPGSV,3,2,10,18,20,172,32,20,12,083,40,25,48,106,35,26,31,289,32*77
$GPGSV,3,3,10,29,83,096,34,31,59,264,29*75
$GLGSV,2,1,08,70,12,332,25,71,07,019,38,77,19,133,24,78,75,130,32*6C
$GLGSV,2,2,08,79,46,315,39,81,34,201,34,87,42,040,41,88,78,113,34*65
$BDGSV,1,1,02,208,27,036,35,223,03,100,35*61
$GPGSA,A,3,29,31,25,26,18,02,12,20,04,,,,1.0,0.6,0.8*39
$GNGSA,A,3,70,71,78,79,81,87,88,,,,,,1.0,0.6,0.8*25
$GPRMC,074143.306,A,5159.5522,N,00422.2083,E,0.5,341.8,260621,,,A*61
$GPGGA,074143.404,5159.5525,N,00422.2076,E,1,15,0.6,0.6,M,47.1,M,,*57
$GPGLL,5159.5525,N,00422.2076,E,074143.404,A,A*54
$GPVTG,341.8,T,,M,0.7,N,1.3,K,A*06
$GPGSV,3,1,10,02,17,039,40,04,10,330,31,12,13,103,27,16,03,285,15*7E
$GPGSV,3,2,10,18,20,172,32,20,12,083,40,25,48,106,34,26,31,289,31*75
$GPGSV,3,3,10,29,83,096,34,31,59,264,28*74
$GLGSV,2,1,08,70,12,332,24,71,07,019,37,77,19,133,23,78,75,130,32*65
$GLGSV,2,2,08,79,46,315,38,81,34,201,36,87,42,040,40,88,78,113,33*60
$BDGSV,1,1,02,208,27,036,34,223,03,100,35*60
$GPGSA,A,3,29,31,25,26,18,02,12,20,04,,,,1.0,0.6,0.8*39
$GNGSA,A,3,71,78,79,81,87,88,,,,,,,1.0,0.6,0.8*22
$GPRMC,074143.404,A,5159.5525,N,00422.2076,E,0.7,341.8,260621,,,A*6B
$GPGGA,074144.000,5159.5523,N,00422.2064,E,1,15,0.6,-2.3,M,47.1,M,,*7F
$GPGLL,5159.5523,N,00422.2064,E,074144.000,A,A*56
$GPVTG,341.8,T,,M,0.2,N,0.4,K,A*05
$GPGSV,3,1,10,02,17,039,39,04,10,330,31,12,13,103,26,16,03,285,13*77
$GPGSV,3,2,10,18,20,172,36,20,12,083,39,25,48,106,34,26,31,289,31*7F
$GPGSV,3,3,10,29,83,096,33,31,59,264,28,36,25,146,43*45
$GLGSV,2,1,08,70,12,332,23,71,07,019,37,77,19,133,21,78,75,130,34*66
$GLGSV,2,2,08,79,46,315,37,81,34,201,38,87,42,040,40,88,78,113,33*61
$BDGSV,1,1,02,208,27,036,34,223,03,100,37*62
$GPGSA,A,3,29,31,25,26,18,02,12,20,04,,,,1.0,0.6,0.8*39
$GNGSA,A,3,71,78,79,81,87,88,,,,,,,1.0,0.6,0.8*22
$GPRMC,074144.000,A,5159.5523,N,00422.2064,E,0.2,341.8,260621,,,A*6C
$GPGGA,074145.000,5159.5515,N,00422.2081,E,1,17,0.6,-7.2,M,47.1,M,,*76
$GPGLL,5159.5515,N,00422.2081,E,074145.000,A,A*59
$GPVTG,341.8,T,,M,0.0,N,0.0,K,A*03
$GPGSV,3,1,11,02,17,039,39,04,10,330,31,05,05,094,22,12,13,103,26*72
$GPGSV,3,2,11,16,03,285,12,18,20,172,36,20,12,083,39,25,48,106,34*71
$GPGSV,3,3,11,26,31,289,33,29,83,096,33,31,59,264,28,36,25,146,42*70
$GLGSV,2,1,08,70,12,332,23,71,07,019,38,77,19,133,22,78,75,130,34*6A
$GLGSV,2,2,08,79,46,315,37,81,34,201,38,87,42,040,40,88,78,113,32*60
$BDGSV,1,1,02,208,27,036,35,223,03,100,38*6C
$GPGSA,A,3,29,31,25,26,18,02,12,20,04,05,,,1.0,0.6,0.8*3C
$GNGSA,A,3,71,77,78,79,81,87,88,,,,,,1.0,0.6,0.8*22
$GPRMC,074145.000,A,5159.5515,N,00422.2081,E,0.0,341.8,260621,,,A*61
$GPGGA,074146.000,5159.5515,N,00422.2081,E,1,16,0.6,-7.2,M,47.1,M,,*74
$GPGLL,5159.5515,N,00422.2081,E,074146.000,A,A*5A
$GPVTG,341.9,T,,M,0.0,N,0.0,K,A*02
$GPGSV,3,1,11,02,17,039,38,04,10,330,31,05,05,094,21,12,13,103,26*70
$GPGSV,3,2,11,16,03,285,10,18,20,172,36,20,12,083,39,25,48,106,34*73
$GPGSV,3,3,11,26,31,289,32,29,83,096,33,31,59,264,28,36,25,146,42*71
$GLGSV,2,1,08,70,12,332,22,71,07,019,38,77,19,133,22,78,75,130,34*6B
$GLGSV,2,2,08,79,46,315,37,81,34,201,38,87,42,040,39,88,78,113,32*6E
$BDGSV,1,1,03,208,27,036,35,223,03,100,38,227,32,156,36*6C
$GPGSA,A,3,29,31,25,26,18,02,12,20,04,,,,1.0,0.6,0.8*39
$GNGSA,A,3,71,77,78,79,81,87,88,,,,,,1.0,0.6,0.8*22
$GPRMC,074146.000,A,5159.5515,N,00422.2081,E,0.0,341.9,260621,,,A*63
$GPGGA,074147.000,5159.5515,N,00422.2081,E,1,16,0.6,-7.2,M,47.1,M,,*75
$GPGLL,5159.5515,N,00422.2081,E,074147.000,A,A*5B
$GPVTG,341.9,T,,M,0.0,N,0.0,K,A*02
$GPGSV,3,1,11,02,17,039,38,04,10,330,31,05,05,094,19,12,13,103,26*7B
$GPGSV,3,2,11,16,03,285,09,18,20,172,36,20,12,083,39,25,48,106,34*7B
$GPGSV,3,3,11,26,31,289,32,29,83,096,32,31,59,264,27,36,25,146,42*7F
$GLGSV,2,1,08,70,12,332,22,71,07,019,39,77,19,133,22,78,75,130,34*6A
$GLGSV,2,2,08,79,46,315,36,81,34,201,37,87,42,040,39,88,78,113,31*63
$BDGSV,1,1,03,208,27,036,35,223,03,100,38,227,32,156,36*6C
$GPGSA,A,3,29,25,26,18,02,12,20,04,,,,,1.0,0.6,0.8*3B
$GNGSA,A,3,70,71,77,78,79,81,87,88,,,,,1.0,0.6,0.8*25
$GPRMC,074147.000,A,5159.5515,N,00422.2081,E,0.0,341.9,260621,,,A*62
$GPGGA,074148.000,5159.5515,N,00422.2081,E,1,15,0.6,-7.2,M,47.1,M,,*79
$GPGLL,5159.5515,N,00422.2081,E,074148.000,A,A*54
$GPVTG,341.9,T,,M,0.0,N,0.0,K,A*02
$GPGSV,3,1,11,02,17,039,37,04,10,330,30,05,05,094,18,12,13,103,26*74
$GPGSV,3,2,11,16,03,285,08,18,20,172,35,20,12,083,38,25,48,106,34*78
$GPGSV,3,3,11,26,31,289,32,29,83,096,35,31,59,264,27,36,25,146,41*7B
$GLGSV,2,1,08,70,12,332,22,71,07,019,39,77,19,133,22,78,75,130,34*6A
$GLGSV,2,2,08,79,46,315,36,81,34,201,36,87,42,040,38,88,78,113,31*63
$BDGSV,1,1,03,208,27,036,35,223,03,100,38,227,32,156,35*6F
$GPGSA,A,3,29,25,26,18,02,12,20,04,,,,,1.0,0.6,0.8*3B
$GNGSA,A,3,71,77,78,79,81,87,88,,,,,,1.0,0.6,0.8*22
$GPRMC,074148.000,A,5159.5515,N,00422.2081,E,0.0,341.9,260621,,,A*6D
$GPGGA,074149.000,5159.5515,N,00422.2081,E,1,16,0.6,-7.2,M,47.1,M,,*7B
$GPGLL,5159.5515,N,00422.2081,E,074149.000,A,A*55
$GPVTG,341.9,T,,M,0.0,N,0.0,K,A*02
$GPGSV,3,1,11,02,17,039,37,04,10,330,30,05,05,094,16,12,13,103,28*74
$GPGSV,3,2,11,16,03,285,08,18,20,172,34,20,12,083,38,25,48,106,34*79
$GPGSV,3,3,11,26,31,289,31,29,83,096,35,31,59,264,27,36,25,146,41*78
$GLGSV,2,1,08,70,12,332,21,71,07,019,39,77,19,133,22,78,75,130,33*6E
$GLGSV,2,2,08,79,46,315,35,81,34,201,36,87,42,040,38,88,78,113,31*60
$BDGSV,1,1,03,208,27,036,34,223,03,100,38,227,32,156,35*6E
$GPGSA,A,3,29,31,25,26,18,02,12,20,04,,,,1.0,0.6,0.8*39
$GNGSA,A,3,70,71,78,79,81,87,88,,,,,,1.0,0.6,0.8*25
$GPRMC,074149.000,A,5159.5515,N,00422.2081,E,0.0,341.9,260621,,,A*6C
$GPGGA,074150.000,5159.5515,N,00422.2081,E,1,17,0.6,-7.2,M,47.1,M,,*72
$GPGLL,5159.5515,N,00422.2081,E,074150.000,A,A*5D
$GPVTG,341.9,T,,M,0.0,N,0.0,K,A*02
$GPGSV,3,1,11,02,17,039,37,04,10,330,30,05,05,095,15,12,13,103,29*77
$GPGSV,3,2,11,16,03,285,07,18,20,172,37,20,12,083,38,25,48,106,34*75
$GPGSV,3,3,11,26,31,289,31,29,83,096,35,31,59,264,32,36,25,146,41*7C
$GLGSV,2,1,08,70,12,332,23,71,07,019,39,77,19,133,27,78,75,130,36*6C
$GLGSV,2,2,08,79,46,315,35,81,34,201,41,87,42,040,38,88,78,113,35*64
$BDGSV,1,1,03,208,27,036,34,223,03,100,38,227,32,156,34*6F
$GPGSA,A,3,29,31,25,26,18,02,12,20,04,,,,1.0,0.6,0.8*39
$GNGSA,A,3,70,71,77,78,79,81,87,88,,,,,1.0,0.6,0.8*25
$GPRMC,074150.000,A,5159.5515,N,00422.2081,E,0.0,341.9,260621,,,A*64
$GPGGA,074151.000,5159.5515,N,00422.2081,E,1,17,0.6,-7.2,M,47.1,M,,*73
$GPGLL,5159.5515,N,00422.2081,E,074151.000,A,A*5C
$GPVTG,341.9,T,,M,0.0,N,0.0,K,A*02
$GPGSV,3,1,10,02,17,039,36,04,10,330,33,05,05,095,13,12,13,103,29*72
$GPGSV,3,2,10,18,20,172,38,20,12,083,40,25,48,106,41,26,31,289,31*7D
$GPGSV,3,3,10,29,83,096,39,31,59,264,32,36,25,146,41*46
$GLGSV,2,1,08,70,12,332,27,71,07,019,40,77,19,133,30,78,75,130,42*63
$GLGSV,2,2,08,79,46,315,35,81,34,201,43,87,42,040,38,88,78,113,41*65
$BDGSV,1,1,03,208,27,036,34,223,03,100,40,227,32,156,34*60
$GPGSA,A,3,29,31,25,26,18,02,12,20,04,,,,1.0,0.6,0.8*39
$GNGSA,A,3,70,71,77,78,79,81,87,88,,,,,1.0,0.6,0.8*25
$GPRMC,074151.000,A,5159.5515,N,00422.2081,E,0.0,341.9,260621,,,A*65
$GPGGA,074152.000,5159.5515,N,00422.2069,E,1,17,0.6,-6.3,M,47.1,M,,*76
$GPGLL,5159.5515,N,00422.2069,E,074152.000,A,A*59
$GPVTG,203.8,T,,M,1.7,N,3.2,K,A*03
$GPGSV,3,1,10,02,17,039,42,04,10,330,32,05,05,095,12,12,13,103,29*71
$GPGSV,3,2,10,18,20,172,38,20,12,083,40,25,48,106,41,26,31,289,37*7B
$GPGSV,3,3,10,29,83,096,39,31,59,264,47,36,25,146,40*45
$GLGSV,2,1,08,70,12,332,26,71,07,019,40,77,19,133,30,78,75,130,42*62
$GLGSV,2,2,08,79,46,315,37,81,34,201,43,87,42,040,44,88,78,113,41*6C
$BDGSV,1,1,03,208,27,036,39,223,03,100,40,227,32,156,33*6A
$GPGSA,A,3,29,31,25,26,18,02,12,20,04,,,,1.0,0.6,0.8*39
$GNGSA,A,3,70,71,77,78,79,81,87,88,,,,,1.0,0.6,0.8*25
$GPRMC,074152.000,A,5159.5515,N,00422.2069,E,1.7,203.8,260621,,,A*60
$GPGGA,074153.000,5159.5514,N,00422.2061,E,1,16,0.6,-5.8,M,47.1,M,,*77
$GPGLL,5159.5514,N,00422.2061,E,074153.000,A,A*51
$GPVTG,209.2,T,,M,1.9,N,3.5,K,A*0A
$GPGSV,3,1,10,02,17,039,42,04,10,330,31,05,05,095,10,12,13,103,30*78
$GPGSV,3,2,10,18,20,172,38,20,12,083,40,25,48,106,41,26,31,289,41*7A
$GPGSV,3,3,10,29,83,096,39,31,59,264,47,36,25,146,40*45
$GLGSV,2,1,08,70,12,332,25,71,07,019,40,77,19,133,29,78,75,130,42*69
$GLGSV,2,2,08,79,46,315,38,81,34,201,42,87,42,040,44,88,78,113,41*62
$BDGSV,1,1,04,208,27,036,38,223,03,100,40,227,32,156,33,228,46,086,38*63
$GPGSA,A,3,29,31,25,26,18,02,12,20,04,,,,1.0,0.6,0.8*39
$GNGSA,A,3,71,77,78,79,81,87,88,,,,,,1.0,0.6,0.8*22
$GPRMC,074153.000,A,5159.5514,N,00422.2061,E,1.9,209.2,260621,,,A*66
$GPGGA,074154.000,5159.5510,N,00422.2061,E,1,17,0.6,-4.9,M,47.1,M,,*75
$GPGLL,5159.5510,N,00422.2061,E,074154.000,A,A*52
$GPVTG,216.6,T,,M,1.5,N,2.7,K,A*0F
$GPGSV,3,1,10,02,17,039,42,04,10,330,31,05,05,095,09,12,13,103,30*70
$GPGSV,3,2,10,18,20,172,38,20,12,083,40,25,48,106,41,26,31,289,41*7A
$GPGSV,3,3,10,29,83,096,39,31,59,264,46,36,25,146,40*44
$GLGSV,2,1,08,70,12,332,25,71,07,019,39,77,19,133,28,78,75,130,42*66
$GLGSV,2,2,08,79,46,315,40,81,34,201,42,87,42,040,44,88,78,113,40*6C
$BDGSV,1,1,04,208,27,036,38,223,03,100,39,227,32,156,34,228,46,086,38*6A
$GPGSA,A,3,29,31,25,26,18,02,12,20,04,,,,1.0,0.6,0.8*39
$GNGSA,A,3,70,71,77,78,79,81,87,88,,,,,1.0,0.6,0.8*25
$GPRMC,074154.000,A,5159.5510,N,00422.2061,E,1.5,216.6,260621,,,A*63
$GPGGA,074155.000,5159.5508,N,00422.2058,E,1,17,0.6,-4.6,M,47.1,M,,*78
$GPGLL,5159.5508,N,00422.2058,E,074155.000,A,A*50
$GPVTG,207.8,T,,M,1.1,N,2.1,K,A*03
$GPGSV,3,1,10,02,17,039,41,04,10,330,31,05,05,095,08,12,13,103,30*72
$GPGSV,3,2,10,18,20,172,38,20,12,083,40,25,48,106,41,26,31,289,41*7A
$GPGSV,3,3,10,29,83,096,38,31,59,264,46,36,25,146,39*4B
$GLGSV,2,1,08,70,12,332,25,71,07,019,38,77,19,133,28,78,75,130,41*64
$GLGSV,2,2,08,79,46,315,41,81,34,201,42,87,42,040,44,88,78,113,40*6D
$BDGSV,1,1,04,208,27,036,37,223,03,100,39,227,32,156,34,228,46,086,38*65
$GPGSA,A,3,29,31,25,26,18,02,12,20,04,,,,1.0,0.6,0.8*39
$GNGSA,A,3,70,71,77,78,79,81,87,88,,,,,1.0,0.6,0.8*25
$GPRMC,074155.000,A,5159.5508,N,00422.2058,E,1.1,207.8,260621,,,A*6B
$GPGGA,074156.000,5159.5507,N,00422.2059,E,1,17,0.6,-4.5,M,47.1,M,,*76
$GPGLL,5159.5507,N,00422.2059,E,074156.000,A,A*5D
$GPVTG,205.4,T,,M,0.5,N,1.0,K,A*0A
$GPGSV,3,1,10,02,17,039,42,04,10,330,31,05,05,095,07,12,13,103,30*7E
$GPGSV,3,2,10,18,20,172,38,20,12,083,40,25,48,106,41,26,31,289,40*7B
$GPGSV,3,3,10,29,83,096,38,31,59,264,46,36,25,146,40*45
$GLGSV,2,1,08,70,12,332,24,71,07,019,40,77,19,133,28,78,75,130,41*6A
$GLGSV,2,2,08,79,46,315,40,81,34,201,42,87,42,040,44,88,78,113,39*62
$BDGSV,1,1,04,208,27,036,37,223,03,100,40,227,32,156,34,228,46,086,39*6A
$GPGSA,A,3,29,31,25,26,18,02,12,20,04,,,,1.0,0.6,0.8*39
$GNGSA,A,3,70,71,77,78,79,81,87,88,,,,,1.0,0.6,0.8*25
$GPRMC,074156.000,A,5159.5507,N,00422.2059,E,0.5,205.4,260621,,,A*6D
$GPGGA,074157.000,5159.5509,N,00422.2064,E,1,17,0.6,-3.7,M,47.1,M,,*72
$GPGLL,5159.5509,N,00422.2064,E,074157.000,A,A*5C
$GPVTG,202.8,T,,M,0.4,N,0.7,K,A*06
$GPGSV,3,1,09,02,17,039,43,04,10,330,30,12,13,103,30,18,20,172,38*79
$GPGSV,3,2,09,20,12,083,39,25,48,106,41,26,31,289,39,29,83,096,38*73
$GPGSV,3,3,09,31,59,264,46,36,25,146,40*79
$GLGSV,2,1,08,70,12,332,24,71,07,019,44,77,19,133,28,78,75,130,43*6C
$GLGSV,2,2,08,79,46,315,40,81,34,201,42,87,42,040,44,88,78,113,39*62
$BDGSV,1,1,04,208,27,036,39,223,03,100,43,227,32,156,34,228,46,086,46*6F
$GPGSA,A,3,29,31,25,26,18,02,12,20,04,,,,1.0,0.6,0.8*39
$GNGSA,A,3,70,71,77,78,79,81,87,88,,,,,1.0,0.6,0.8*25
$GPRMC,074157.000,A,5159.5509,N,00422.2064,E,0.4,202.8,260621,,,A*66
$GPGGA,074158.000,5159.5509,N,00422.2064,E,1,17,0.6,-3.7,M,47.1,M,,*7D
$GPGLL,5159.5509,N,00422.2064,E,074158.000,A,A*53
$GPVTG,203.0,T,,M,0.0,N,0.0,K,A*0C
$GPGSV,3,1,09,02,17,039,43,04,10,330,30,12,13,103,30,18,20,172,38*79
$GPGSV,3,2,09,20,12,083,38,25,48,106,42,26,31,289,38,29,83,096,38*70
$GPGSV,3,3,09,31,59,264,46,36,25,146,41*78
$GLGSV,2,1,08,70,12,332,23,71,07,019,45,77,19,133,29,78,75,130,43*6B
$GLGSV,2,2,08,79,46,315,39,81,34,201,43,87,42,040,44,88,78,113,39*6D
$BDGSV,1,1,04,208,27,036,39,223,03,100,43,227,32,156,34,228,46,086,46*6F
$GPGSA,A,3,29,31,25,26,18,02,12,20,04,,,,1.0,0.6,0.8*39
$GNGSA,A,3,70,71,77,78,79,81,87,88,,,,,1.0,0.6,0.8*25
$GPRMC,074158.000,A,5159.5509,N,00422.2064,E,0.0,203.0,260621,,,A*64
$GPGGA,074159.000,5159.5509,N,00422.2064,E,1,17,0.6,-3.7,M,47.1,M,,*7C
$GPGLL,5159.5509,N,00422.2064,E,074159.000,A,A*52
$GPVTG,203.0,T,,M,0.0,N,0.0,K,A*0C
$GPGSV,3,1,09,02,17,039,43,04,10,330,29,12,13,103,30,18,20,172,38*71
$GPGSV,3,2,09,20,12,083,38,25,48,106,43,26,31,289,37,29,83,096,38*7E
$GPGSV,3,3,09,31,59,264,46,36,25,146,41*78
$GLGSV,2,1,08,70,12,332,23,71,07,019,45,77,19,133,29,78,75,130,43*6B
$GLGSV,2,2,08,79,46,315,39,81,34,201,43,87,42,040,44,88,78,113,39*6D
$BDGSV,1,1,04,208,27,036,39,223,03,100,43,227,32,156,34,228,46,086,46*6F
$GPGSA,A,3,29,31,25,26,18,02,12,20,04,,,,1.0,0.6,0.8*39
$GNGSA,A,3,70,71,77,78,79,81,87,88,,,,,1.0,0.6,0.8*25
$GPRMC,074159.000,A,5159.5509,N,00422.2064,E,0.0,203.0,260621,,,A*65
$GPGGA,074200.000,5159.5509,N,00422.2064,E,1,17,0.6,-3.7,M,47.1,M,,*73
$GPGLL,5159.5509,N,00422.2064,E,074200.000,A,A*5D
$GPVTG,203.6,T,,M,0.0,N,0.0,K,A*0A
$GPGSV,3,1,09,02,17,039,43,04,10,330,29,12,13,103,30,18,20,172,38*71
$GPGSV,3,2,09,20,12,083,37,25,48,106,43,26,31,289,36,29,83,096,39*71
$GPGSV,3,3,09,31,59,264,45,36,25,146,41*7B
$GLGSV,2,1,08,70,12,332,23,71,07,019,45,77,19,133,29,78,75,130,43*6B
$GLGSV,2,2,08,79,46,315,38,81,34,201,43,87,42,040,44,88,78,113,39*6C
$BDGSV,1,1,04,208,27,036,39,223,03,100,43,227,32,156,34,228,46,086,46*6F
$GPGSA,A,3,29,31,25,26,18,02,12,20,04,,,,1.0,0.6,0.8*39
$GNGSA,A,3,70,71,77,78,79,81,87,88,,,,,1.0,0.6,0.8*25
$GPRMC,074200.000,A,5159.5509,N,00422.2064,E,0.0,203.6,260621,,,A*6C
$GPGGA,074201.000,5159.5509,N,00422.2064,E,1,17,0.6,-3.7,M,47.1,M,,*72
$GPGLL,5159.5509,N,00422.2064,E,074201.000,A,A*5C
$GPVTG,203.8,T,,M,0.0,N,0.0,K,A*04
$GPGSV,3,1,09,02,17,039,43,04,10,330,28,12,13,103,30,18,20,172,38*70
$GPGSV,3,2,09,20,12,083,37,25,48,106,44,26,31,289,36,29,83,096,40*78
$GPGSV,3,3,09,31,59,264,45,36,25,146,41*7B
$GLGSV,2,1,08,70,12,332,23,71,07,019,45,77,19,133,29,78,75,130,43*6B
$GLGSV,2,2,08,79,46,315,38,81,34,201,44,87,42,040,44,88,78,113,39*6B
$BDGSV,1,1,04,208,27,036,39,223,03,100,43,227,32,156,34,228,46,086,46*6F
$GPGSA,A,3,29,31,25,26,18,02,12,20,04,,,,1.0,0.6,0.8*39
$GNGSA,A,3,70,71,77,78,79,81,87,88,,,,,1.0,0.6,0.8*25
$GPRMC,074201.000,A,5159.5509,N,00422.2064,E,0.0,203.8,260621,,,A*63
$GPGGA,074202.000,5159.5509,N,00422.2064,E,1,17,0.6,-3.7,M,47.1,M,,*71
$GPGLL,5159.5509,N,00422.2064,E,074202.000,A,A*5F
$GPVTG,203.9,T,,M,0.0,N,0.0,K,A*05
$GPGSV,3,1,09,02,17,039,43,04,10,330,28,12,13,103,32,18,20,172,38*72
$GPGSV,3,2,09,20,12,083,36,25,48,106,44,26,31,289,35,29,83,096,40*7A
$GPGSV,3,3,09,31,59,264,45,36,25,146,41*7B
$GLGSV,2,1,08,70,12,332,23,71,07,019,45,77,19,133,29,78,75,130,43*6B
$GLGSV,2,2,08,79,46,315,38,81,34,201,44,87,42,040,44,88,78,113,38*6A
$BDGSV,1,1,04,208,27,036,39,223,03,100,43,227,32,156,33,228,46,086,46*68
$GPGSA,A,3,29,31,25,26,18,02,12,20,04,,,,1.0,0.6,0.8*39
$GNGSA,A,3,70,71,77,78,79,81,87,88,,,,,1.0,0.6,0.8*25
$GPRMC,074202.000,A,5159.5509,N,00422.2064,E,0.0,203.9,260621,,,A*61
$GPGGA,074203.000,5159.5509,N,00422.2064,E,1,17,0.6,-3.7,M,47.1,M,,*70
$GPGLL,5159.5509,N,00422.2064,E,074203.000,A,A*5E
$GPVTG,204.0,T,,M,0.0,N,0.0,K,A*0B
$GPGSV,3,1,09,02,17,039,43,04,10,330,27,12,13,103,36,18,20,172,38*79
$GPGSV,3,2,09,20,12,083,36,25,48,106,45,26,31,289,35,29,83,096,40*7B
$GPGSV,3,3,09,31,59,264,44,36,25,146,41*7A
$GLGSV,2,1,08,70,12,332,23,71,07,019,45,77,19,133,29,78,75,130,43*6B
$GLGSV,2,2,08,79,46,315,38,81,34,201,44,87,42,040,43,88,78,113,38*6D
$BDGSV,1,1,04,208,27,036,39,223,03,100,43,227,32,156,33,228,46,086,46*68
$GPGSA,A,3,29,31,25,26,18,02,12,20,04,,,,1.0,0.6,0.8*39
$GNGSA,A,3,70,71,77,78,79,81,87,88,,,,,1.0,0.6,0.8*25
$GPRMC,074203.000,A,5159.5509,N,00422.2064,E,0.0,204.0,260621,,,A*6E
$GPGGA,074204.000,5159.5509,N,00422.2064,E,1,17,0.6,-3.7,M,47.1,M,,*77
$GPGLL,5159.5509,N,00422.2064,E,074204.000,A,A*59
$GPVTG,204.1,T,,M,0.0,N,0.0,K,A*0A
$GPGSV,3,1,09,02,17,039,43,04,10,330,27,12,13,103,36,18,20,172,38*79
$GPGSV,3,2,09,20,12,083,36,25,48,106,45,26,31,289,34,29,83,096,39*74
$GPGSV,3,3,09,31,59,264,44,36,25,146,41*7A
$GLGSV,2,1,08,70,12,332,23,71,07,019,45,77,19,133,29,78,75,130,43*6B
$GLGSV,2,2,08,79,46,315,37,81,34,201,44,87,42,040,43,88,78,113,38*62
$BDGSV,1,1,04,208,27,036,39,223,03,100,43,227,32,156,33,228,46,086,46*68
$GPGSA,A,3,29,31,25,26,18,02,12,20,04,,,,1.0,0.6,0.8*39
$GNGSA,A,3,70,71,77,78,79,81,87,88,,,,,1.0,0.6,0.8*25
$GPRMC,074204.000,A,5159.5509,N,00422.2064,E,0.0,204.1,260621,,,A*68
$GPGGA,074205.000,5159.5509,N,00422.2064,E,1,16,0.6,-3.7,M,47.1,M,,*77
$GPGLL,5159.5509,N,00422.2064,E,074205.000,A,A*58
$GPVTG,204.1,T,,M,0.0,N,0.0,K,A*0A
$GPGSV,3,1,09,02,17,039,43,04,10,330,27,12,13,103,36,18,20,172,38*79
$GPGSV,3,2,09,20,12,083,36,25,48,106,45,26,31,289,34,29,83,096,39*74
$GPGSV,3,3,09,31,59,264,43,36,25,146,41*7D
$GLGSV,2,1,08,70,12,332,23,71,07,019,44,77,19,133,29,78,75,130,42*6B
$GLGSV,2,2,08,79,46,315,37,81,34,201,44,87,42,040,43,88,78,113,38*62
$BDGSV,1,1,04,208,27,036,39,223,03,100,43,227,32,156,33,228,46,086,46*68
$GPGSA,A,3,29,31,25,26,18,02,12,20,04,,,,1.0,0.6,0.8*39
$GNGSA,A,3,71,77,78,79,81,87,88,,,,,,1.0,0.6,0.8*22
$GPRMC,074205.000,A,5159.5509,N,00422.2064,E,0.0,204.1,260621,,,A*69
$GPGGA,074206.000,5159.5509,N,00422.2064,E,1,16,0.6,-3.7,M,47.1,M,,*74
$GPGLL,5159.5509,N,00422.2064,E,074206.000,A,A*5B
$GPVTG,204.1,T,,M,0.0,N,0.0,K,A*0A
$GPGSV,3,1,09,02,17,039,43,04,10,330,26,12,13,103,36,18,20,172,38*78
$GPGSV,3,2,09,20,12,083,36,25,48,106,45,26,31,289,33,29,83,096,38*72
$GPGSV,3,3,09,31,59,264,43,36,25,146,41*7D
$GLGSV,2,1,08,70,12,332,23,71,07,019,44,77,19,133,29,78,75,130,42*6B
$GLGSV,2,2,08,79,46,315,37,81,34,201,45,87,42,040,43,88,78,113,38*63
$BDGSV,1,1,04,208,27,036,38,223,03,100,43,227,32,156,33,228,46,086,45*6A
$GPGSA,A,3,29,31,25,26,18,02,12,20,,,,,1.0,0.6,0.8*3D
$GNGSA,A,3,70,71,77,78,79,81,87,88,,,,,1.0,0.6,0.8*25
$GPRMC,074206.000,A,5159.5509,N,00422.2064,E,0.0,204.1,260621,,,A*6A
$GPGGA,074207.000,5159.5504,N,00422.2068,E,1,17,0.6,-3.6,M,47.1,M,,*74
$GPGLL,5159.5504,N,00422.2068,E,074207.000,A,A*5B
$GPVTG,165.9,T,,M,2.9,N,5.4,K,A*0C
$GPGSV,3,1,09,02,17,039,43,04,10,330,26,12,13,103,36,18,20,172,38*78
$GPGSV,3,2,09,20,12,083,35,25,48,106,45,26,31,289,33,29,83,096,38*71
$GPGSV,3,3,09,31,59,264,43,36,25,146,41*7D
$GLGSV,2,1,08,70,12,332,23,71,07,019,44,77,18,134,29,78,75,130,41*6E
$GLGSV,2,2,08,79,46,315,37,81,34,202,45,87,42,039,43,88,78,112,37*60
$BDGSV,1,1,04,208,27,036,38,223,03,100,43,227,32,156,33,228,46,086,45*6A
$GPGSA,A,3,29,31,25,26,18,02,12,20,04,,,,1.0,0.6,0.8*39
$GNGSA,A,3,70,71,77,78,79,81,87,88,,,,,1.0,0.6,0.8*25
$GPRMC,074207.000,A,5159.5504,N,00422.2068,E,2.9,165.9,260621,,,A*6D
$GPGGA,074208.000,5159.5496,N,00422.2073,E,1,17,0.6,-3.4,M,47.1,M,,*79
$GPGLL,5159.5496,N,00422.2073,E,074208.000,A,A*54
$GPVTG,158.2,T,,M,3.1,N,5.8,K,A*0C
$GPGSV,3,1,09,02,17,039,42,04,10,330,26,12,13,103,36,18,20,172,38*79
$GPGSV,3,2,09,20,12,083,35,25,48,106,45,26,31,289,33,29,83,096,38*71
$GPGSV,3,3,09,31,59,264,42,36,25,146,41*7C
$GLGSV,2,1,08,70,12,332,23,71,07,019,43,77,18,134,29,78,75,130,41*69
$GLGSV,2,2,08,79,46,315,37,81,34,202,45,87,42,039,42,88,78,112,37*61
$BDGSV,1,1,04,208,27,036,37,223,03,100,43,227,32,156,33,228,46,086,45*65
$GPGSA,A,3,29,31,25,26,18,02,12,20,04,,,,1.0,0.6,0.8*39
$GNGSA,A,3,70,71,77,78,79,81,87,88,,,,,1.0,0.6,0.8*25
$GPRMC,074208.000,A,5159.5496,N,00422.2073,E,3.1,158.2,260621,,,A*6E
$GPGGA,074209.000,5159.5488,N,00422.2079,E,1,17,0.6,-3.0,M,47.1,M,,*79
$GPGLL,5159.5488,N,00422.2079,E,074209.000,A,A*50
$GPVTG,151.1,T,,M,3.3,N,6.2,K,A*0D
$GPGSV,3,1,09,02,17,039,42,04,10,330,26,12,13,103,36,18,20,172,38*79
$GPGSV,3,2,09,20,12,083,35,25,48,106,45,26,31,289,32,29,83,096,37*7F
$GPGSV,3,3,09,31,59,264,42,36,25,146,41*7C
$GLGSV,2,1,08,70,12,332,23,71,07,019,43,77,18,134,29,78,75,130,41*69
$GLGSV,2,2,08,79,46,315,37,81,34,202,45,87,42,039,42,88,78,112,37*61
$BDGSV,1,1,04,208,27,036,37,223,03,100,43,227,32,156,33,228,46,086,45*65
$GPGSA,A,3,29,31,25,26,18,02,12,20,04,,,,1.0,0.6,0.8*39
$GNGSA,A,3,70,71,77,78,79,81,87,88,,,,,1.0,0.6,0.8*25
$GPRMC,074209.000,A,5159.5488,N,00422.2079,E,3.3,151.1,260621,,,A*62
$GPGGA,074210.000,5159.5479,N,00422.2088,E,1,17,0.6,-2.9,M,47.1,M,,*79
$GPGLL,5159.5479,N,00422.2088,E,074210.000,A,A*58
$GPVTG,155.3,T,,M,3.9,N,7.2,K,A*00
$GPGSV,3,1,09,02,17,039,42,04,10,330,25,12,13,103,36,18,20,172,38*7A
$GPGSV,3,2,09,20,12,083,35,25,48,106,45,26,31,289,36,29,83,096,37*7B
$GPGSV,3,3,09,31,59,264,41,36,25,146,41*7F
$GLGSV,2,1,08,70,12,332,23,71,07,019,43,77,18,134,29,78,75,130,41*69
$GLGSV,2,2,08,79,46,315,36,81,34,202,45,87,42,039,42,88,78,112,37*60
$BDGSV,1,1,04,208,27,036,37,223,03,100,43,227,32,156,33,228,46,086,45*65
$GPGSA,A,3,29,31,25,26,18,02,12,20,04,,,,1.0,0.6,0.8*39
$GNGSA,A,3,70,71,77,78,79,81,87,88,,,,,1.0,0.6,0.8*25
$GPRMC,074210.000,A,5159.5479,N,00422.2088,E,3.9,155.3,260621,,,A*66
$GPGGA,074211.000,5159.5467,N,00422.2093,E,1,17,0.6,-2.8,M,47.1,M,,*7C
$GPGLL,5159.5467,N,00422.2093,E,074211.000,A,A*5C
$GPVTG,166.2,T,,M,4.3,N,7.9,K,A*07
$GPGSV,3,1,09,02,17,039,42,04,10,330,25,12,13,103,35,18,20,172,38*79
$GPGSV,3,2,09,20,12,083,35,25,48,106,45,26,31,289,36,29,83,096,36*7A
$GPGSV,3,3,09,31,59,264,41,36,25,146,41*7F
$GLGSV,2,1,08,70,12,332,23,71,07,019,45,77,18,134,29,78,75,130,43*6D
$GLGSV,2,2,08,79,46,315,36,81,34,202,45,87,42,039,42,88,78,112,37*60
$BDGSV,1,1,04,208,27,036,37,223,03,100,43,227,32,156,33,228,46,086,45*65
$GPGSA,A,3,29,31,25,26,18,02,12,20,04,,,,1.0,0.6,0.8*39
$GNGSA,A,3,70,71,77,78,79,81,87,88,,,,,1.0,0.6,0.8*25
$GPRMC,074211.000,A,5159.5467,N,00422.2093,E,4.3,166.2,260621,,,A*6E
$GPGGA,074212.000,5159.5456,N,00422.2096,E,1,17,0.6,-2.6,M,47.1,M,,*76
$GPGLL,5159.5456,N,00422.2096,E,074212.000,A,A*58
$GPVTG,166.1,T,,M,4.2,N,7.7,K,A*0B
$GPGSV,3,1,09,02,17,039,42,04,10,330,25,12,13,103,35,18,20,172,38*79
$GPGSV,3,2,09,20,12,083,35,25,48,106,45,26,31,289,36,29,83,096,36*7A
$GPGSV,3,3,09,31,59,264,43,36,25,146,41*7D
$GLGSV,2,1,08,70,12,332,23,71,07,019,45,77,18,134,29,78,75,130,43*6D
$GLGSV,2,2,08,79,46,315,36,81,34,202,44,87,42,039,42,88,78,112,37*61
$BDGSV,1,1,04,208,27,036,40,223,03,100,43,227,32,156,33,228,46,086,45*65
$GPGSA,A,3,29,31,25,26,18,02,12,20,04,,,,1.0,0.6,0.8*39
$GNGSA,A,3,70,71,77,78,79,81,87,88,,,,,1.0,0.6,0.8*25
$GPRMC,074212.000,A,5159.5456,N,00422.2096,E,4.2,166.1,260621,,,A*68
$GPGGA,074213.000,5159.5445,N,00422.2102,E,1,17,0.6,-2.2,M,47.1,M,,*7D
$GPGLL,5159.5445,N,00422.2102,E,074213.000,A,A*57
$GPVTG,166.1,T,,M,3.9,N,7.2,K,A*02
$GPGSV,3,1,09,02,17,039,42,04,10,330,26,12,13,103,34,18,20,172,38*7B
$GPGSV,3,2,09,20,12,083,34,25,48,106,45,26,31,289,35,29,83,096,35*7B
$GPGSV,3,3,09,31,59,264,43,36,25,146,41*7D
$GLGSV,2,1,08,70,12,332,22,71,07,019,44,77,18,134,29,78,75,130,42*6C
$GLGSV,2,2,08,79,46,315,36,81,34,202,43,87,42,039,42,88,78,112,37*66
$BDGSV,1,1,04,208,27,036,40,223,03,100,44,227,32,156,33,228,46,086,45*62
$GPGSA,A,3,29,31,25,26,18,02,12,20,04,,,,1.0,0.6,0.8*39
$GNGSA,A,3,70,71,77,78,79,81,87,88,,,,,1.0,0.6,0.8*25
$GPRMC,074213.000,A,5159.5445,N,00422.2102,E,3.9,166.1,260621,,,A*6B
$GPGGA,074214.000,5159.5442,N,00422.2109,E,1,19,0.6,-3.1,M,47.1,M,,*7A
$GPGLL,5159.5442,N,00422.2109,E,074214.000,A,A*5C
$GPVTG,156.9,T,,M,3.8,N,6.9,K,A*02
$GPGSV,3,1,09,02,17,039,42,04,10,330,27,12,13,103,34,18,20,172,38*7A
$GPGSV,3,2,09,20,12,083,34,25,48,106,45,26,31,289,35,29,83,096,35*7B
$GPGSV,3,3,09,31,59,264,43,36,25,146,41*7D
$GLGSV,2,1,08,70,12,332,22,71,07,019,44,77,18,134,29,78,75,130,42*6C
$GLGSV,2,2,08,79,46,315,36,81,34,202,43,87,42,039,42,88,78,112,37*66
$BDGSV,1,1,04,208,27,036,40,223,27,146,44,227,32,156,32,228,73,158,45*63
$GPGSA,A,3,29,31,25,26,18,02,12,20,04,,,,1.0,0.6,0.8*39
$GNGSA,A,3,70,71,77,78,79,81,87,88,,,,,1.0,0.6,0.8*25
$BDGSA,A,3,223,228,,,,,,,,,,,1.0,0.6,0.8*27
$GPRMC,074214.000,A,5159.5442,N,00422.2109,E,3.8,156.9,260621,,,A*6A
$GPGGA,074215.000,5159.5439,N,00422.2116,E,1,18,0.6,-3.4,M,47.1,M,,*7D
$GPGLL,5159.5439,N,00422.2116,E,074215.000,A,A*5F
$GPVTG,161.1,T,,M,3.6,N,6.7,K,A*0E
$GPGSV,3,1,09,02,17,039,42,04,10,330,27,12,13,104,33,18,20,172,37*75
$GPGSV,3,2,09,20,12,083,34,25,48,106,45,26,31,289,34,29,83,096,34*7B
$GPGSV,3,3,09,31,59,264,42,36,25,146,41*7C
$GLGSV,2,1,08,70,12,332,22,71,07,019,44,77,18,134,29,78,75,130,42*6C
$GLGSV,2,2,08,79,46,315,36,81,34,202,43,87,42,039,41,88,78,112,37*65
$BDGSV,1,1,04,208,27,036,39,223,27,146,44,227,32,156,32,228,73,158,45*6D
$GPGSA,A,3,29,31,25,26,18,02,12,20,04,,,,1.0,0.6,0.8*39
$GNGSA,A,3,71,77,78,79,81,87,88,,,,,,1.0,0.6,0.8*22
$BDGSA,A,3,223,228,,,,,,,,,,,1.0,0.6,0.8*27
$GPRMC,074215.000,A,5159.5439,N,00422.2116,E,3.6,161.1,260621,,,A*6B
$GPGGA,074216.000,5159.5434,N,00422.2119,E,1,19,0.6,-4.0,M,47.1,M,,*7E
$GPGLL,5159.5434,N,00422.2119,E,074216.000,A,A*5E
$GPVTG,171.2,T,,M,3.4,N,6.4,K,A*0D
$GPGSV,3,1,09,02,17,039,42,04,10,330,27,12,13,104,33,18,21,172,37*74
$GPGSV,3,2,09,20,12,083,33,25,48,106,45,26,31,289,34,29,83,096,34*7C
$GPGSV,3,3,09,31,59,264,41,36,25,146,41*7F
$GLGSV,2,1,08,70,12,332,22,71,07,019,44,77,18,134,29,78,75,130,42*6C
$GLGSV,2,2,08,79,46,315,36,81,34,202,42,87,42,039,41,88,78,111,37*67
$BDGSV,2,1,05,205,06,113,38,208,27,036,39,223,27,146,44,227,32,156,32*67
$BDGSV,2,2,05,228,73,158,45*6C
$GPGSA,A,3,29,31,25,26,18,02,12,20,04,,,,1.0,0.6,0.8*39
$GNGSA,A,3,70,71,77,78,79,81,87,88,,,,,1.0,0.6,0.8*25
$BDGSA,A,3,223,228,,,,,,,,,,,1.0,0.6,0.8*27
$GPRMC,074216.000,A,5159.5434,N,00422.2119,E,3.4,171.2,260621,,,A*6A
$GPGGA,074217.000,5159.5428,N,00422.2122,E,1,19,0.6,-4.3,M,47.1,M,,*79
$GPGLL,5159.5428,N,00422.2122,E,074217.000,A,A*5A
$GPVTG,162.9,T,,M,4.2,N,7.7,K,A*07
$GPGSV,3,1,09,02,17,039,42,04,10,330,27,12,13,104,33,18,21,172,37*74
$GPGSV,3,2,09,20,12,083,32,25,47,107,45,26,31,289,33,29,83,096,34*74
$GPGSV,3,3,09,31,59,264,41,36,25,146,40*7E
$GLGSV,2,1,08,70,12,332,22,71,07,019,44,77,18,134,29,78,75,130,41*6F
$GLGSV,2,2,08,79,46,315,36,81,34,202,42,87,42,039,41,88,78,111,37*67
$BDGSV,2,1,05,205,06,113,38,208,27,036,39,223,27,146,44,227,32,156,31*64
$BDGSV,2,2,05,228,73,158,44*6D
$GPGSA,A,3,29,31,25,26,18,02,12,20,04,,,,1.0,0.6,0.8*39
$GNGSA,A,3,70,71,77,78,79,81,87,88,,,,,1.0,0.6,0.8*25
$BDGSA,A,3,223,228,,,,,,,,,,,1.0,0.6,0.8*27
$GPRMC,074217.000,A,5159.5428,N,00422.2122,E,4.2,162.9,260621,,,A*66
$GPGGA,074218.000,5159.5420,N,00422.2129,E,1,19,0.6,-4.6,M,47.1,M,,*70
$GPGLL,5159.5420,N,00422.2129,E,074218.000,A,A*56
$GPVTG,156.6,T,,M,4.2,N,7.8,K,A*00
$GPGSV,3,1,09,02,17,039,42,04,10,330,27,12,13,104,32,18,21,172,36*74
$GPGSV,3,2,09,20,12,083,32,25,47,107,45,26,31,289,33,29,83,094,34*76
$GPGSV,3,3,09,31,59,263,40,36,25,146,40*78
$GLGSV,2,1,08,70,12,332,22,71,07,019,44,77,18,134,29,78,75,130,41*6F
$GLGSV,2,2,08,79,46,315,36,81,34,202,41,87,42,039,41,88,78,111,37*64
$BDGSV,2,1,05,205,06,113,38,208,27,036,39,223,27,146,44,227,32,156,31*64
$BDGSV,2,2,05,228,73,158,44*6D
$GPGSA,A,3,29,31,25,26,18,02,12,20,04,,,,1.0,0.6,0.8*39
$GNGSA,A,3,70,71,77,78,79,81,87,88,,,,,1.0,0.6,0.8*25
$BDGSA,A,3,223,228,,,,,,,,,,,1.0,0.6,0.8*27
$GPRMC,074218.000,A,5159.5420,N,00422.2129,E,4.2,156.6,260621,,,A*62
$GPGGA,074219.000,5159.5412,N,00422.2133,E,1,19,0.6,-4.8,M,47.1,M,,*75
$GPGLL,5159.5412,N,00422.2133,E,074219.000,A,A*5D
$GPVTG,168.5,T,,M,4.6,N,8.5,K,A*08
$GPGSV,3,1,09,02,17,039,42,04,10,330,27,12,13,104,32,18,21,172,35*77
$GPGSV,3,2,09,20,12,083,31,25,47,107,45,26,31,289,32,29,83,094,33*73
$GPGSV,3,3,09,31,59,263,40,36,25,146,40*78
$GLGSV,2,1,08,70,12,332,22,71,07,019,44,77,18,134,29,78,75,130,41*6F
$GLGSV,2,2,08,79,46,315,35,81,34,202,41,87,42,039,40,88,78,111,37*66
$BDGSV,2,1,05,205,06,113,38,208,27,036,38,223,27,146,44,227,32,156,31*65
$BDGSV,2,2,05,228,73,158,44*6D
$GPGSA,A,3,29,31,25,26,18,02,12,20,04,,,,1.0,0.6,0.8*39
$GNGSA,A,3,70,71,77,78,79,81,87,88,,,,,1.0,0.6,0.8*25
$BDGSA,A,3,223,228,,,,,,,,,,,1.0,0.6,0.8*27
$GPRMC,074219.000,A,5159.5412,N,00422.2133,E,4.6,168.5,260621,,,A*63
$GPGGA,074220.000,5159.5404,N,00422.2138,E,1,19,0.6,-5.2,M,47.1,M,,*78
$GPGLL,5159.5404,N,00422.2138,E,074220.000,A,A*5B
$GPVTG,162.6,T,,M,4.3,N,8.0,K,A*01
$GPGSV,3,1,09,02,17,039,42,04,10,330,27,12,13,104,33,18,21,172,35*76
$GPGSV,3,2,09,20,12,083,30,25,47,107,45,26,31,289,32,29,83,094,33*72
$GPGSV,3,3,09,31,59,263,41,36,25,146,40*79
$GLGSV,2,1,08,70,12,332,22,71,07,019,44,77,18,134,30,78,75,130,41*67
$GLGSV,2,2,08,79,46,315,35,81,34,202,40,87,42,039,40,88,78,111,37*67
$BDGSV,2,1,05,205,06,113,37,208,27,036,38,223,27,146,44,227,32,156,31*6A
$BDGSV,2,2,05,228,73,158,44*6D
$GPGSA,A,3,29,31,25,26,18,02,12,20,04,,,,1.0,0.6,0.8*39
$GNGSA,A,3,70,71,77,78,79,81,87,88,,,,,1.0,0.6,0.8*25
$BDGSA,A,3,223,228,,,,,,,,,,,1.0,0.6,0.8*27
$GPRMC,074220.000,A,5159.5404,N,00422.2138,E,4.3,162.6,260621,,,A*69
$GPGGA,074221.000,5159.5396,N,00422.2144,E,1,18,0.6,-5.3,M,47.1,M,,*7E
$GPGLL,5159.5396,N,00422.2144,E,074221.000,A,A*5D
$GPVTG,164.0,T,,M,4.1,N,7.6,K,A*0A
$GPGSV,3,1,09,02,17,039,42,04,10,330,27,12,13,104,38,18,21,172,34*7C
$GPGSV,3,2,09,20,12,083,30,25,47,107,45,26,31,289,31,29,83,094,37*75
$GPGSV,3,3,09,31,59,263,41,36,25,146,40*79
$GLGSV,2,1,08,70,12,332,22,71,07,019,44,77,18,134,30,78,75,130,41*67
$GLGSV,2,2,08,79,46,315,35,81,34,202,39,87,42,039,40,88,78,111,37*69
$BDGSV,2,1,05,205,06,113,37,208,27,036,38,223,27,146,43,227,32,156,30*6C
$BDGSV,2,2,05,228,73,158,44*6D
$GPGSA,A,3,29,31,25,26,18,02,12,04,,,,,1.0,0.6,0.8*3B
$GNGSA,A,3,70,71,77,78,79,81,87,88,,,,,1.0,0.6,0.8*25
$BDGSA,A,3,223,228,,,,,,,,,,,1.0,0.6,0.8*27
$GPRMC,074221.000,A,5159.5396,N,00422.2144,E,4.1,164.0,260621,,,A*6D
$GPGGA,074222.000,5159.5388,N,00422.2147,E,1,19,0.6,-5.5,M,47.1,M,,*76
$GPGLL,5159.5388,N,00422.2147,E,074222.000,A,A*52
$GPVTG,166.8,T,,M,4.0,N,7.4,K,A*03
$GPGSV,3,1,09,02,17,039,42,04,10,330,27,12,13,104,38,18,21,172,34*7C
$GPGSV,3,2,09,20,12,083,29,25,47,107,45,26,31,289,31,29,83,094,37*7D
$GPGSV,3,3,09,31,59,263,41,36,25,146,40*79
$GLGSV,2,1,08,70,12,332,22,71,07,019,43,77,18,134,30,78,75,130,41*60
$GLGSV,2,2,08,79,46,315,34,81,34,202,39,87,42,039,40,88,78,111,37*68
$BDGSV,2,1,05,205,06,113,37,208,27,036,38,223,27,146,43,227,32,156,30*6C
$BDGSV,2,2,05,228,73,158,44*6D
$GPGSA,A,3,29,31,25,26,18,02,12,20,04,,,,1.0,0.6,0.8*39
$GNGSA,A,3,70,71,77,78,79,81,87,88,,,,,1.0,0.6,0.8*25
$BDGSA,A,3,223,228,,,,,,,,,,,1.0,0.6,0.8*27
$GPRMC,074222.000,A,5159.5388,N,00422.2147,E,4.0,166.8,260621,,,A*69
$GPGGA,074223.000,5159.5379,N,00422.2151,E,1,19,0.6,-5.9,M,47.1,M,,*72
$GPGLL,5159.5379,N,00422.2151,E,074223.000,A,A*5A
$GPVTG,168.0,T,,M,4.0,N,7.4,K,A*05
$GPGSV,3,1,09,02,17,039,42,04,10,330,27,12,13,104,38,18,21,172,33*7B
$GPGSV,3,2,09,20,12,083,28,25,47,107,45,26,31,289,30,29,83,094,37*7D
$GPGSV,3,3,09,31,59,263,41,36,25,146,40*79
$GLGSV,2,1,08,70,12,332,22,71,07,019,43,77,18,134,30,78,75,130,41*60
$GLGSV,2,2,08,79,46,315,34,81,34,202,38,87,42,039,40,88,78,111,37*69
$BDGSV,2,1,05,205,06,113,37,208,27,036,38,223,27,146,43,227,32,156,30*6C
$BDGSV,2,2,05,228,73,158,44*6D
$GPGSA,A,3,29,31,25,26,18,02,12,20,04,,,,1.0,0.6,0.8*39
$GNGSA,A,3,70,71,77,78,79,81,87,88,,,,,1.0,0.6,0.8*25
$BDGSA,A,3,223,228,,,,,,,,,,,1.0,0.6,0.8*27
$GPRMC,074223.000,A,5159.5379,N,00422.2151,E,4.0,168.0,260621,,,A*67
$GPGGA,074224.000,5159.5371,N,00422.2152,E,1,19,0.6,-6.0,M,47.1,M,,*74
$GPGLL,5159.5371,N,00422.2152,E,074224.000,A,A*56
$GPVTG,177.5,T,,M,4.0,N,7.4,K,A*0E
$GPGSV,3,1,09,02,17,039,42,04,10,330,26,12,13,104,38,18,21,172,33*7A
$GPGSV,3,2,09,20,12,083,28,25,47,107,45,26,31,289,30,29,83,094,37*7D
$GPGSV,3,3,09,31,59,263,40,36,25,146,40*78
$GLGSV,2,1,08,70,12,332,21,71,07,019,42,77,18,134,30,78,75,130,41*62
$GLGSV,2,2,08,79,46,315,34,81,34,202,37,87,42,039,40,88,78,111,37*66
$BDGSV,2,1,05,205,06,113,36,208,27,036,38,223,27,146,43,227,32,156,30*6D
$BDGSV,2,2,05,228,73,158,44*6D
$GPGSA,A,3,29,31,25,26,18,02,12,20,04,,,,1.0,0.6,0.8*39
$GNGSA,A,3,70,71,77,78,79,81,87,88,,,,,1.0,0.6,0.8*25
$BDGSA,A,3,223,228,,,,,,,,,,,1.0,0.6,0.8*27
$GPRMC,074224.000,A,5159.5371,N,00422.2152,E,4.0,177.5,260621,,,A*60
$GPGGA,074225.000,5159.5360,N,00422.2153,E,1,17,0.6,-6.2,M,47.1,M,,*78
$GPGLL,5159.5360,N,00422.2153,E,074225.000,A,A*56
$GPVTG,169.0,T,,M,4.8,N,8.9,K,A*0E
$GPGSV,3,1,09,02,17,039,42,04,10,330,26,12,13,104,38,18,21,172,34*7D
$GPGSV,3,2,09,20,12,083,27,25,47,107,45,26,31,289,30,29,83,094,37*72
$GPGSV,3,3,09,31,59,263,40,36,25,146,40*78
$GLGSV,2,1,08,70,12,332,21,71,07,019,42,77,18,134,30,78,75,130,41*62
$GLGSV,2,2,08,79,46,315,33,81,34,202,36,87,42,039,40,88,78,111,37*60
$BDGSV,2,1,05,205,06,113,36,208,27,036,38,223,27,146,43,227,32,156,30*6D
$BDGSV,2,2,05,228,73,158,44*6D
$GPGSA,A,3,29,31,25,26,18,02,12,20,,,,,1.0,0.6,0.8*3D
$GNGSA,A,3,71,77,78,79,81,87,88,,,,,,1.0,0.6,0.8*22
$BDGSA,A,3,223,228,,,,,,,,,,,1.0,0.6,0.8*27
$GPRMC,074225.000,A,5159.5360,N,00422.2153,E,4.8,169.0,260621,,,A*62
$GPGGA,074226.000,5159.5347,N,00422.2163,E,1,18,0.6,-6.2,M,47.1,M,,*72
$GPGLL,5159.5347,N,00422.2163,E,074226.000,A,A*53
$GPVTG,163.0,T,,M,5.5,N,10.2,K,A*3A
$GPGSV,3,1,09,02,17,039,42,04,10,330,26,12,13,104,38,18,21,172,34*7D
$GPGSV,3,2,09,20,12,083,27,25,47,107,45,26,31,289,29,29,83,094,37*7A
$GPGSV,3,3,09,31,59,263,40,36,25,146,39*76
$GLGSV,2,1,08,70,12,332,21,71,07,019,42,77,18,134,29,78,75,130,40*6B
$GLGSV,2,2,08,79,46,315,33,81,34,202,36,87,42,039,40,88,78,111,37*60
$BDGSV,2,1,05,205,06,113,35,208,27,036,38,223,27,146,43,227,32,156,30*6E
$BDGSV,2,2,05,228,73,158,44*6D
$GPGSA,A,3,29,31,25,26,18,02,12,20,04,,,,1.0,0.6,0.8*39
$GNGSA,A,3,71,77,78,79,81,87,88,,,,,,1.0,0.6,0.8*22
$BDGSA,A,3,223,228,,,,,,,,,,,1.0,0.6,0.8*27
$GPRMC,074226.000,A,5159.5347,N,00422.2163,E,5.5,163.0,260621,,,A*61
$GPGGA,074227.000,5159.5334,N,00422.2177,E,1,17,0.6,-6.1,M,47.1,M,,*7E
$GPGLL,5159.5334,N,00422.2177,E,074227.000,A,A*53
$GPVTG,158.4,T,,M,5.6,N,10.4,K,A*33
$GPGSV,3,1,09,02,17,039,42,04,10,330,26,12,13,104,38,18,21,172,33*7A
$GPGSV,3,2,09,20,12,083,31,25,47,107,44,26,31,289,29,29,83,094,37*7C
$GPGSV,3,3,09,31,59,263,38,36,25,146,38*78
$GLGSV,2,1,08,70,12,332,20,71,07,019,41,77,18,134,28,78,75,130,40*68
$GLGSV,2,2,08,79,46,315,33,81,34,202,36,87,42,039,40,88,78,111,37*60
$BDGSV,2,1,05,205,06,113,33,208,27,036,38,223,27,146,42,227,32,156,30*69
$BDGSV,2,2,05,228,73,158,43*6A
$GPGSA,A,3,29,31,25,26,18,02,12,20,04,,,,1.0,0.6,0.8*39
$GNGSA,A,3,71,78,79,81,87,88,,,,,,,1.0,0.6,0.8*22
$BDGSA,A,3,223,228,,,,,,,,,,,1.0,0.6,0.8*27
$GPRMC,074227.000,A,5159.5334,N,00422.2177,E,5.6,158.4,260621,,,A*6E
$GPGGA,074228.000,5159.5320,N,00422.2189,E,1,17,0.6,-5.9,M,47.1,M,,*7E
$GPGLL,5159.5320,N,00422.2189,E,074228.000,A,A*58
$GPVTG,161.3,T,,M,5.8,N,10.7,K,A*33
$GPGSV,3,1,09,02,17,039,42,04,10,330,24,12,13,104,37,18,21,172,33*77
$GPGSV,3,2,09,20,12,083,39,25,47,107,44,26,31,289,29,29,83,094,37*74
$GPGSV,3,3,09,31,59,263,37,36,25,146,37*78
$GLGSV,2,1,08,70,12,332,20,71,07,019,41,77,18,134,27,78,75,130,39*69
$GLGSV,2,2,08,79,46,315,33,81,34,202,35,87,42,039,40,88,78,111,37*63
$BDGSV,2,1,05,205,06,113,32,208,27,036,38,223,27,146,41,227,32,156,34*6F
$BDGSV,2,2,05,228,73,158,43*6A
$GPGSA,A,3,29,31,25,26,18,02,12,20,,,,,1.0,0.6,0.8*3D
$GNGSA,A,3,70,71,78,79,81,87,88,,,,,,1.0,0.6,0.8*25
$BDGSA,A,3,223,228,,,,,,,,,,,1.0,0.6,0.8*27
$GPRMC,074228.000,A,5159.5320,N,00422.2189,E,5.8,161.3,260621,,,A*66
$GPGGA,074229.000,5159.5305,N,00422.2200,E,1,17,0.6,-5.8,M,47.1,M,,*7B
$GPGLL,5159.5305,N,00422.2200,E,074229.000,A,A*5C
$GPVTG,155.6,T,,M,5.6,N,10.4,K,A*3C
$GPGSV,3,1,09,02,17,039,42,04,10,330,23,12,13,104,36,18,21,172,32*70
$GPGSV,3,2,09,20,12,083,39,25,47,107,44,26,31,289,28,29,83,094,36*74
$GPGSV,3,3,09,31,59,263,36,36,25,146,37*79
$GLGSV,2,1,08,70,12,332,19,71,07,019,40,77,18,134,26,78,75,130,39*63
$GLGSV,2,2,08,79,46,315,32,81,34,202,35,87,42,039,40,88,78,111,36*63
$BDGSV,2,1,05,205,06,113,30,208,27,036,38,223,27,146,40,227,32,156,33*6B
$BDGSV,2,2,05,228,73,158,42*6B
$GPGSA,A,3,29,31,25,18,02,12,20,,,,,,1.0,0.6,0.8*39
$GNGSA,A,3,70,71,77,78,79,81,87,88,,,,,1.0,0.6,0.8*25
$BDGSA,A,3,223,228,,,,,,,,,,,1.0,0.6,0.8*27
$GPRMC,074229.000,A,5159.5305,N,00422.2200,E,5.6,155.6,260621,,,A*6E
$GPGGA,074230.000,5159.5293,N,00422.2209,E,1,17,0.6,-5.6,M,47.1,M,,*7A
$GPGLL,5159.5293,N,00422.2209,E,074230.000,A,A*53
$GPVTG,155.7,T,,M,4.4,N,8.2,K,A*01
$GPGSV,3,1,09,02,17,039,42,04,10,330,22,12,13,104,35,18,21,172,32*72
$GPGSV,3,2,09,20,12,083,38,25,47,107,44,26,31,289,27,29,83,094,36*7A
$GPGSV,3,3,09,31,59,263,36,36,25,146,35*7B
$GLGSV,2,1,08,70,12,332,19,71,07,019,40,77,18,134,25,78,75,130,38*61
$GLGSV,2,2,08,79,46,315,32,81,34,202,34,87,42,039,40,88,78,111,36*62
$BDGSV,2,1,05,205,06,113,29,208,27,036,38,223,27,146,39,227,32,156,32*6C
$BDGSV,2,2,05,228,73,158,42*6B
$GPGSA,A,3,29,31,25,26,18,02,12,20,,,,,1.0,0.6,0.8*3D
$GNGSA,A,3,71,77,78,79,81,87,88,,,,,,1.0,0.6,0.8*22
$BDGSA,A,3,223,228,,,,,,,,,,,1.0,0.6,0.8*27
$GPRMC,074230.000,A,5159.5293,N,00422.2209,E,4.4,155.7,260621,,,A*63
$GPGGA,074231.000,5159.5284,N,00422.2213,E,1,15,0.8,-5.6,M,47.1,M,,*7A
$GPGLL,5159.5284,N,00422.2213,E,074231.000,A,A*5F
$GPVTG,151.6,T,,M,3.1,N,5.8,K,A*01
$GPGSV,3,1,09,02,17,039,42,04,10,330,22,12,13,104,34,18,21,172,31*70
$GPGSV,3,2,09,20,12,083,36,25,47,107,42,26,31,289,27,29,83,094,35*71
$GPGSV,3,3,09,31,59,263,36,36,25,146,34*7A
$GLGSV,2,1,08,70,12,332,19,71,07,019,40,77,18,134,25,78,75,130,36*6F
$GLGSV,2,2,08,79,46,315,31,81,34,202,33,87,42,039,40,88,78,111,35*65
$BDGSV,2,1,05,205,06,113,27,208,27,036,38,223,27,146,37,227,32,156,31*6F
$BDGSV,2,2,05,228,73,158,40*69
$GPGSA,A,3,29,31,25,18,02,12,20,,,,,,1.2,0.8,1.0*3C
$GNGSA,A,3,71,78,79,81,87,88,,,,,,,1.2,0.8,1.0*27
$BDGSA,A,3,223,228,,,,,,,,,,,1.2,0.8,1.0*22
$GPRMC,074231.000,A,5159.5284,N,00422.2213,E,3.1,151.6,260621,,,A*68
$GPGGA,074232.000,5159.5275,N,00422.2220,E,1,11,0.8,-5.6,M,47.1,M,,*73
$GPGLL,5159.5275,N,00422.2220,E,074232.000,A,A*52
$GPVTG,152.1,T,,M,4.4,N,8.1,K,A*03
$GPGSV,3,1,09,02,17,039,41,04,10,330,22,12,13,104,33,18,21,172,30*75
$GPGSV,3,2,09,20,12,083,34,25,47,107,40,26,31,289,26,29,83,094,34*71
$GPGSV,3,3,09,31,59,263,34,36,25,146,32*7E
$GLGSV,2,1,08,70,12,332,18,71,07,019,40,77,18,134,24,78,75,130,35*6C
$GLGSV,2,2,08,79,46,315,31,81,34,202,32,87,42,039,39,88,78,111,33*6C
$BDGSV,2,1,05,205,06,113,26,208,27,036,37,223,27,146,36,227,32,156,30*61
$BDGSV,2,2,05,228,73,158,38*66
$GPGSA,A,3,29,31,25,18,02,04,,,,,,,1.4,0.8,1.0*3F
$GNGSA,A,3,71,79,87,,,,,,,,,,1.4,0.8,1.0*27
$BDGSA,A,3,223,228,,,,,,,,,,,1.4,0.8,1.0*24
$GPRMC,074232.000,A,5159.5275,N,00422.2220,E,4.4,152.1,260621,,,A*63
$GPGGA,074233.000,5159.5266,N,00422.2221,E,1,10,0.8,-5.6,M,47.1,M,,*70
$GPGLL,5159.5266,N,00422.2221,E,074233.000,A,A*50
$GPVTG,155.4,T,,M,3.4,N,6.4,K,A*0D
$GPGSV,3,1,09,02,17,039,39,04,10,330,22,12,13,104,31,18,21,172,29*70
$GPGSV,3,2,09,20,12,083,33,25,47,107,38,26,31,289,25,29,83,094,33*7D
$GPGSV,3,3,09,31,59,263,33,36,25,146,31*7A
$GLGSV,2,1,08,70,12,332,18,71,07,019,39,77,18,134,23,78,75,130,33*63
$GLGSV,2,2,08,79,46,315,30,81,34,202,31,87,42,039,37,88,78,111,31*62
$BDGSV,2,1,05,205,06,113,24,208,27,036,36,223,27,146,35,227,32,156,29*69
$BDGSV,2,2,05,228,73,158,37*69
$GPGSA,A,3,29,02,20,04,,,,,,,,,1.4,0.8,1.2*33
$GNGSA,A,3,71,79,81,87,,,,,,,,,1.4,0.8,1.2*2C
$BDGSA,A,3,223,228,,,,,,,,,,,1.4,0.8,1.2*26
$GPRMC,074233.000,A,5159.5266,N,00422.2221,E,3.4,155.4,260621,,,A*64
$GPGGA,074234.000,5159.5257,N,00422.2225,E,1,07,1.2,-5.6,M,47.1,M,,*7C
$GPGLL,5159.5257,N,00422.2225,E,074234.000,A,A*51
$GPVTG,158.6,T,,M,3.7,N,6.9,K,A*0C
$GPGSV,3,1,09,02,17,039,38,04,10,330,22,12,13,104,29,18,21,172,28*79
$GPGSV,3,2,09,20,12,083,32,25,47,107,36,26,31,289,24,29,83,094,32*72
$GPGSV,3,3,09,31,59,263,31,36,25,146,29*71
$GLGSV,2,1,08,70,12,332,17,71,07,019,37,77,18,134,23,78,75,130,31*60
$GLGSV,2,2,08,79,46,315,29,81,34,202,30,87,42,039,36,88,78,111,30*6B
$BDGSV,2,1,05,205,06,113,23,208,27,036,34,223,27,146,34,227,32,156,28*6C
$BDGSV,2,2,05,228,73,158,35*6B
$GPGSA,A,3,26,02,20,,,,,,,,,,2.4,1.2,2.0*31
$GNGSA,A,3,71,79,,,,,,,,,,,2.4,1.2,2.0*23
$BDGSA,A,3,223,228,,,,,,,,,,,2.4,1.2,2.0*2F
$GPRMC,074234.000,A,5159.5257,N,00422.2225,E,3.7,158.6,260621,,,A*69
$GPGGA,074235.000,5159.5247,N,00422.2227,E,1,07,1.0,-5.7,M,47.1,M,,*7D
$GPGLL,5159.5247,N,00422.2227,E,074235.000,A,A*53
$GPVTG,169.2,T,,M,3.6,N,6.7,K,A*05
$GPGSV,3,1,09,02,17,039,36,04,10,330,21,12,13,104,28,18,21,172,27*7A
$GPGSV,3,2,09,20,12,083,30,25,47,107,34,26,31,289,23,29,83,094,30*77
$GPGSV,3,3,09,31,59,263,30,36,25,146,28*71
$GLGSV,2,1,08,70,12,332,17,71,07,019,36,77,18,134,22,78,75,130,30*61
$GLGSV,2,2,08,79,46,315,28,81,34,202,29,87,42,039,35,88,78,111,29*69
$BDGSV,2,1,05,205,06,113,21,208,27,036,33,223,27,146,33,227,32,156,27*61
$BDGSV,2,2,05,228,73,158,34*6A
$GPGSA,A,3,31,26,02,,,,,,,,,,2.8,1.0,2.6*39
$GNGSA,A,3,79,81,87,,,,,,,,,,2.8,1.0,2.6*2B
$BDGSA,A,3,223,,,,,,,,,,,,2.8,1.0,2.6*1F
$GPRMC,074235.000,A,5159.5247,N,00422.2227,E,3.6,169.2,260621,,,A*6C
$GPGGA,074236.000,5159.5237,N,00422.2229,E,1,06,1.0,-5.7,M,47.1,M,,*76
$GPGLL,5159.5237,N,00422.2229,E,074236.000,A,A*59
$GPVTG,174.0,T,,M,3.5,N,6.5,K,A*0A
$GPGSV,3,1,09,02,17,039,35,04,10,330,21,12,13,104,27,18,21,172,26*77
$GPGSV,3,2,09,20,12,083,29,25,47,107,32,26,31,289,22,29,83,094,29*70
$GPGSV,3,3,09,31,59,263,28,36,25,146,26*76
$GLGSV,2,1,08,70,12,332,17,71,07,019,34,77,18,134,21,78,75,130,29*68
$GLGSV,2,2,08,79,46,315,27,81,34,202,28,87,42,039,33,88,78,111,27*6F
$BDGSV,2,1,05,205,06,113,20,208,27,036,31,223,27,146,32,227,32,156,26*62
$BDGSV,2,2,05,228,73,158,32*6C
$GPGSA,A,3,02,,,,,,,,,,,,2.4,1.0,2.2*37
$GNGSA,A,3,70,79,81,87,,,,,,,,,2.4,1.0,2.2*24
$BDGSA,A,3,223,,,,,,,,,,,,2.4,1.0,2.2*17
$GPRMC,074236.000,A,5159.5237,N,00422.2229,E,3.5,174.0,260621,,,A*6B
$GPGGA,074237.000,5159.5225,N,00422.2232,E,1,07,0.8,-5.7,M,47.1,M,,*76
$GPGLL,5159.5225,N,00422.2232,E,074237.000,A,A*51
$GPVTG,176.3,T,,M,3.9,N,7.3,K,A*00
$GPGSV,3,1,09,02,17,039,33,04,10,330,21,12,13,104,26,18,21,172,26*70
$GPGSV,3,2,09,20,12,083,28,25,47,107,31,26,31,289,21,29,83,094,28*70
$GPGSV,3,3,09,31,59,263,27,36,25,146,25*7A
$GLGSV,2,1,08,70,12,332,16,71,07,019,33,77,18,134,21,78,75,130,27*60
$GLGSV,2,2,08,79,46,315,27,81,34,202,27,87,42,039,32,88,78,111,26*60
$BDGSV,2,1,05,205,06,113,18,208,27,036,30,223,27,146,32,227,32,156,25*6B
$BDGSV,2,2,05,228,73,158,31*6F
$GPGSA,A,3,02,12,04,,,,,,,,,,2.2,0.8,2.0*3D
$GNGSA,A,3,79,81,87,,,,,,,,,,2.2,0.8,2.0*2E
$BDGSA,A,3,223,,,,,,,,,,,,2.2,0.8,2.0*1A
$GPRMC,074237.000,A,5159.5225,N,00422.2232,E,3.9,176.3,260621,,,A*6E
$GPGGA,074238.000,5159.5208,N,00422.2243,E,1,07,1.4,-5.7,M,47.1,M,,*7D
$GPGLL,5159.5208,N,00422.2243,E,074238.000,A,A*57
$GPVTG,171.0,T,,M,5.9,N,10.9,K,A*3E
$GPGSV,3,1,09,02,17,039,32,04,10,330,21,12,13,104,26,18,21,172,25*72
$GPGSV,3,2,09,20,12,083,27,25,47,107,29,26,31,289,21,29,83,094,27*79
$GPGSV,3,3,09,31,59,263,26,36,25,146,23*7D
$GLGSV,2,1,08,70,12,332,16,71,07,019,31,77,18,134,20,78,75,130,26*62
$GLGSV,2,2,08,79,46,315,26,81,34,202,26,87,42,039,31,88,78,110,25*61
$BDGSV,2,1,05,205,06,113,17,208,27,036,28,223,27,146,31,227,32,156,24*6F
$BDGSV,2,2,05,228,73,158,30*6E
$GPGSA,A,3,31,18,02,12,,,,,,,,,2.6,1.4,2.0*3B
$GNGSA,A,3,87,,,,,,,,,,,,2.6,1.4,2.0*20
$BDGSA,A,3,223,228,,,,,,,,,,,2.6,1.4,2.0*2B
$GPRMC,074238.000,A,5159.5208,N,00422.2243,E,5.9,171.0,260621,,,A*6A
$GPGGA,074239.000,5159.5186,N,00422.2265,E,1,09,1.0,-5.8,M,47.1,M,,*78
$GPGLL,5159.5186,N,00422.2265,E,074239.000,A,A*57
$GPVTG,159.2,T,,M,6.9,N,12.7,K,A*39
$GPGSV,3,1,09,02,17,039,30,04,10,330,20,12,13,104,26,18,21,172,25*71
$GPGSV,3,2,09,20,12,083,27,25,47,107,28,26,31,289,20,29,83,094,26*78
$GPGSV,3,3,09,31,59,263,24,36,25,146,22*7E
$GLGSV,2,1,08,70,12,332,16,71,07,019,30,77,18,134,19,78,75,130,25*6A
$GLGSV,2,2,08,79,46,315,25,81,34,202,25,87,42,039,30,88,78,110,24*61
$BDGSV,2,1,05,205,06,113,15,208,27,036,27,223,27,146,31,227,32,156,23*65
$BDGSV,2,2,05,228,73,158,28*67
$GPGSA,A,3,31,18,12,20,,,,,,,,,2.0,1.0,1.6*3C
$GNGSA,A,3,79,87,88,,,,,,,,,,2.0,1.0,1.6*29
$BDGSA,A,3,223,228,,,,,,,,,,,2.0,1.0,1.6*2C
$GPRMC,074239.000,A,5159.5186,N,00422.2265,E,6.9,159.2,260621,,,A*61
$GPGGA,074240.000,5159.5163,N,00422.2285,E,1,13,0.8,-5.7,M,47.1,M,,*7E
$GPGLL,5159.5163,N,00422.2285,E,074240.000,A,A*5C
$GPVTG,153.0,T,,M,5.9,N,11.0,K,A*36
$GPGSV,3,1,09,02,17,039,29,04,10,330,20,12,13,104,26,18,21,172,25*79
$GPGSV,3,2,09,20,12,083,26,25,47,107,26,26,31,289,19,29,83,094,25*7E
$GPGSV,3,3,09,31,59,263,23,36,25,146,29*72
$GLGSV,2,1,08,70,12,332,15,71,07,019,29,77,18,134,22,78,75,130,25*69
$GLGSV,2,2,08,79,46,315,24,81,34,202,25,87,42,039,29,88,78,110,23*6F
$BDGSV,2,1,05,205,06,113,14,208,27,036,25,223,27,146,33,227,32,156,23*64
$BDGSV,2,2,05,228,73,158,28*67
$GPGSA,A,3,29,18,02,12,20,04,,,,,,,1.2,0.8,1.0*3D
$GNGSA,A,3,71,77,78,79,87,,,,,,,,1.2,0.8,1.0*2E
$BDGSA,A,3,223,228,,,,,,,,,,,1.2,0.8,1.0*22
$GPRMC,074240.000,A,5159.5163,N,00422.2285,E,5.9,153.0,260621,,,A*61
$GPGGA,074241.000,5159.5140,N,00422.2312,E,1,15,0.8,-5.6,M,47.1,M,,*76
$GPGLL,5159.5140,N,00422.2312,E,074241.000,A,A*53
$GPVTG,152.6,T,,M,5.5,N,10.2,K,A*3E
$GPGSV,3,1,09,02,17,039,28,04,10,330,20,12,13,104,40,18,21,172,26*7B
$GPGSV,3,2,09,20,12,083,27,25,47,107,36,26,31,289,19,29,83,094,25*7E
$GPGSV,3,3,09,31,59,263,22,36,25,146,32*79
$GLGSV,2,1,08,70,12,332,15,71,07,019,28,77,18,134,22,78,75,130,24*69
$GLGSV,2,2,08,79,46,315,24,81,34,202,28,87,42,039,28,88,78,110,23*63
$BDGSV,2,1,05,205,06,113,12,208,27,036,24,223,27,146,35,227,32,156,22*64
$BDGSV,2,2,05,228,73,158,27*68
$GPGSA,A,3,29,31,25,18,02,12,20,,,,,,1.4,0.8,1.0*3A
$GNGSA,A,3,77,78,79,81,87,88,,,,,,,1.4,0.8,1.0*27
$BDGSA,A,3,223,228,,,,,,,,,,,1.4,0.8,1.0*24
$GPRMC,074241.000,A,5159.5140,N,00422.2312,E,5.5,152.6,260621,,,A*65
$GPGGA,074242.000,5159.5124,N,00422.2326,E,1,15,0.8,-4.5,M,47.1,M,,*72
$GPGLL,5159.5124,N,00422.2326,E,074242.000,A,A*55
$GPVTG,158.2,T,,M,5.8,N,10.8,K,A*37
$GPGSV,3,1,09,02,17,039,28,04,10,330,19,12,13,104,41,18,21,172,26*70
$GPGSV,3,2,09,20,12,083,38,25,47,107,40,26,31,289,18,29,83,094,29*7C
$GPGSV,3,3,09,31,59,263,32,36,25,146,33*79
$GLGSV,2,1,08,70,12,332,15,71,07,019,27,77,18,134,22,78,75,130,30*63
$GLGSV,2,2,08,79,46,315,23,81,34,202,28,87,42,039,28,88,78,110,27*60
$BDGSV,2,1,05,205,06,113,31,208,27,036,23,223,27,146,36,227,32,156,21*62
$BDGSV,2,2,05,228,73,158,35*6B
$GPGSA,A,3,29,31,25,18,02,12,20,,,,,,1.2,0.8,1.0*3C
$GNGSA,A,3,71,78,79,81,87,88,,,,,,,1.2,0.8,1.0*27
$BDGSA,A,3,223,228,,,,,,,,,,,1.2,0.8,1.0*22
$GPRMC,074242.000,A,5159.5124,N,00422.2326,E,5.8,158.2,260621,,,A*60
$GPGGA,074243.000,5159.5108,N,00422.2345,E,1,16,0.8,-4.4,M,47.1,M,,*7A
$GPGLL,5159.5108,N,00422.2345,E,074243.000,A,A*5F
$GPVTG,157.2,T,,M,6.2,N,11.6,K,A*3E
$GPGSV,3,1,10,02,17,039,27,04,10,330,17,05,05,094,19,12,13,104,41*76
$GPGSV,3,2,10,18,21,172,26,20,12,083,39,25,47,107,41,26,31,289,27*74
$GPGSV,3,3,10,29,83,094,32,31,59,263,38,36,25,146,33*47
$GLGSV,2,1,08,70,12,332,14,71,07,019,26,77,18,134,22,78,75,130,30*63
$GLGSV,2,2,08,79,46,315,26,81,34,202,29,87,42,039,30,88,78,110,29*63
$BDGSV,2,1,05,205,06,113,30,208,27,036,24,223,27,146,37,227,32,156,21*65
$BDGSV,2,2,05,228,73,158,39*67
$GPGSA,A,3,29,31,25,18,02,12,20,,,,,,1.2,0.8,1.0*3C
$GNGSA,A,3,71,77,78,79,81,87,88,,,,,,1.2,0.8,1.0*27
$BDGSA,A,3,223,228,,,,,,,,,,,1.2,0.8,1.0*22
$GPRMC,074243.000,A,5159.5108,N,00422.2345,E,6.2,157.2,260621,,,A*6C
$GPGGA,074244.000,5159.5092,N,00422.2350,E,1,16,0.6,-4.7,M,47.1,M,,*76
$GPGLL,5159.5092,N,00422.2350,E,074244.000,A,A*5E
$GPVTG,156.7,T,,M,6.7,N,12.3,K,A*39
$GPGSV,3,1,10,02,17,039,37,04,10,330,16,05,05,094,21,12,13,104,41*7D
$GPGSV,3,2,10,18,21,172,34,20,12,083,39,25,47,107,41,26,31,289,27*77
$GPGSV,3,3,10,29,83,094,33,31,59,263,38,36,25,146,33*46
$GLGSV,2,1,08,70,12,332,13,71,07,019,25,77,18,134,22,78,75,131,30*66
$GLGSV,2,2,08,79,46,315,27,81,34,202,30,87,41,039,35,88,78,110,29*6C
$BDGSV,2,1,05,205,06,113,30,208,27,036,32,223,27,146,38,227,32,156,20*6C
$BDGSV,2,2,05,228,74,157,39*6F
$GPGSA,A,3,29,31,25,26,18,02,12,20,,,,,1.2,0.6,1.0*36
$GNGSA,A,3,77,78,79,81,87,88,,,,,,,1.2,0.6,1.0*2F
$BDGSA,A,3,223,228,,,,,,,,,,,1.2,0.6,1.0*2C
$GPRMC,074244.000,A,5159.5092,N,00422.2350,E,6.7,156.7,260621,,,A*6C
$GPGGA,074245.000,5159.5069,N,00422.2356,E,1,16,0.6,-5.2,M,47.1,M,,*71
$GPGLL,5159.5069,N,00422.2356,E,074245.000,A,A*5D
$GPVTG,155.2,T,,M,7.0,N,13.0,K,A*3B
$GPGSV,3,1,10,02,17,039,41,04,10,330,14,05,05,094,24,12,13,104,41*7B
$GPGSV,3,2,10,18,21,172,36,20,12,083,39,25,47,107,42,26,31,289,27*76
$GPGSV,3,3,10,29,83,094,33,31,59,263,38,36,25,146,33*46
$GLGSV,2,1,08,70,12,332,11,71,07,019,25,77,18,134,22,78,75,131,30*64
$GLGSV,2,2,08,79,46,315,27,81,34,202,30,87,41,039,35,88,78,110,30*64
$BDGSV,2,1,05,205,06,113,30,208,27,036,34,223,27,146,38,227,32,156,20*6A
$BDGSV,2,2,05,228,74,157,39*6F
$GPGSA,A,3,29,31,25,26,18,02,12,20,,,,,1.2,0.6,1.0*36
$GNGSA,A,3,77,78,79,81,87,88,,,,,,,1.2,0.6,1.0*2F
$BDGSA,A,3,223,228,,,,,,,,,,,1.2,0.6,1.0*2C
$GPRMC,074245.000,A,5159.5069,N,00422.2356,E,7.0,155.2,260621,,,A*6F
$GPGGA,074246.000,5159.5047,N,00422.2375,E,1,16,0.6,-5.6,M,47.1,M,,*7B
$GPGLL,5159.5047,N,00422.2375,E,074246.000,A,A*53
$GPVTG,159.8,T,,M,7.2,N,13.4,K,A*3B
$GPGSV,3,1,10,02,17,039,41,04,10,330,13,05,05,094,27,12,13,104,41*7F
$GPGSV,3,2,10,18,21,172,38,20,12,083,39,25,47,107,42,26,31,289,27*78
$GPGSV,3,3,10,29,83,094,33,31,59,263,38,36,25,146,33*46
$GLGSV,2,1,08,70,12,332,10,71,07,019,24,77,18,134,22,78,75,131,30*64
$GLGSV,2,2,08,79,46,315,27,81,34,202,30,87,41,039,35,88,78,110,30*64
$BDGSV,2,1,05,205,06,113,30,208,27,036,35,223,27,146,38,227,32,156,24*6F
$BDGSV,2,2,05,228,74,157,39*6F
$GPGSA,A,3,29,31,25,26,18,02,12,20,,,,,1.2,0.6,1.0*36
$GNGSA,A,3,77,78,79,81,87,88,,,,,,,1.2,0.6,1.0*2F
$BDGSA,A,3,223,228,,,,,,,,,,,1.2,0.6,1.0*2C
$GPRMC,074246.000,A,5159.5047,N,00422.2375,E,7.2,159.8,260621,,,A*65
$GPGGA,074247.000,5159.5022,N,00422.2391,E,1,16,0.6,-5.9,M,47.1,M,,*7C
$GPGLL,5159.5022,N,00422.2391,E,074247.000,A,A*5B
$GPVTG,163.5,T,,M,7.3,N,13.5,K,A*3F
$GPGSV,3,1,10,02,17,039,41,04,10,330,11,05,05,094,27,12,13,104,41*7D
$GPGSV,3,2,10,18,21,172,39,20,12,083,39,25,47,107,42,26,31,289,26*78
$GPGSV,3,3,10,29,83,094,34,31,59,263,37,36,25,146,33*4E
$GLGSV,2,1,08,70,12,332,09,71,07,019,24,77,18,134,22,78,75,131,30*6C
$GLGSV,2,2,08,79,46,315,27,81,34,202,30,87,41,039,36,88,78,110,30*67
$BDGSV,2,1,05,205,06,113,30,208,27,036,35,223,27,146,39,227,32,156,24*6E
$BDGSV,2,2,05,228,74,157,39*6F
$GPGSA,A,3,29,31,25,26,18,02,12,20,,,,,1.2,0.6,1.0*36
$GNGSA,A,3,77,78,79,81,87,88,,,,,,,1.2,0.6,1.0*2F
$BDGSA,A,3,223,228,,,,,,,,,,,1.2,0.6,1.0*2C
$GPRMC,074247.000,A,5159.5022,N,00422.2391,E,7.3,163.5,260621,,,A*68
$GPGGA,074248.000,5159.4999,N,00422.2401,E,1,16,0.6,-5.8,M,47.1,M,,*74
$GPGLL,5159.4999,N,00422.2401,E,074248.000,A,A*52
$GPVTG,163.2,T,,M,7.5,N,14.0,K,A*3C
$GPGSV,3,1,10,02,17,039,41,04,10,330,10,05,05,094,28,12,13,104,41*73
$GPGSV,3,2,10,18,21,172,40,20,12,083,39,25,47,107,43,26,31,289,26*77
$GPGSV,3,3,10,29,83,094,34,31,59,263,36,36,25,146,33*4F
$GLGSV,2,1,08,70,12,332,08,71,07,019,23,77,18,134,22,78,75,131,30*6A
$GLGSV,2,2,08,79,46,315,27,81,34,202,31,87,41,039,35,88,78,110,31*64
$BDGSV,2,1,05,205,06,113,30,208,27,036,35,223,27,146,39,227,32,156,24*6E
$BDGSV,2,2,05,228,74,157,39*6F
$GPGSA,A,3,29,31,25,26,18,02,12,20,,,,,1.2,0.6,1.0*36
$GNGSA,A,3,77,78,79,81,87,88,,,,,,,1.2,0.6,1.0*2F
$BDGSA,A,3,223,228,,,,,,,,,,,1.2,0.6,1.0*2C
$GPRMC,074248.000,A,5159.4999,N,00422.2401,E,7.5,163.2,260621,,,A*60
$GPGGA,074249.000,5159.4977,N,00422.2408,E,1,17,0.6,-6.3,M,47.1,M,,*75
$GPGLL,5159.4977,N,00422.2408,E,074249.000,A,A*5A
$GPVTG,164.6,T,,M,7.4,N,13.7,K,A*3E
$GPGSV,3,1,10,02,17,039,41,04,10,330,09,05,05,094,28,12,13,104,41*7B
$GPGSV,3,2,10,18,21,172,41,20,12,083,39,25,47,107,43,26,31,289,26*76
$GPGSV,3,3,10,29,83,092,34,31,59,263,36,36,25,146,33*49
$GLGSV,2,1,08,70,12,332,08,71,07,019,26,77,18,134,23,78,75,131,30*6E
$GLGSV,2,2,08,79,46,315,27,81,34,202,42,87,41,039,35,88,78,110,31*60
$BDGSV,2,1,05,205,06,113,30,208,27,036,35,223,27,146,39,227,32,156,33*68
$BDGSV,2,2,05,228,74,157,39*6F
$GPGSA,A,3,29,31,25,26,18,02,12,20,,,,,1.0,0.6,0.8*3D
$GNGSA,A,3,71,77,78,79,81,87,88,,,,,,1.0,0.6,0.8*22
$BDGSA,A,3,223,228,,,,,,,,,,,1.0,0.6,0.8*27
$GPRMC,074249.000,A,5159.4977,N,00422.2408,E,7.4,164.6,260621,,,A*6A
$GPGGA,074250.000,5159.4956,N,00422.2417,E,1,17,0.6,-6.5,M,47.1,M,,*76
$GPGLL,5159.4956,N,00422.2417,E,074250.000,A,A*5F
$GPVTG,162.4,T,,M,7.3,N,13.6,K,A*3C
$GPGSV,3,1,10,02,17,039,41,04,10,330,08,05,05,094,28,12,13,104,41*7A
$GPGSV,3,2,10,18,21,172,41,20,12,083,39,25,47,107,43,26,31,289,25*75
$GPGSV,3,3,10,29,83,092,34,31,59,263,36,36,25,146,33*49
$GLGSV,2,1,08,70,12,332,07,71,07,019,26,77,18,134,23,78,75,131,30*61
$GLGSV,2,2,08,79,46,315,27,81,34,202,42,87,41,039,35,88,78,110,31*60
$BDGSV,2,1,05,205,06,113,35,208,27,036,35,223,27,146,40,227,32,156,39*69
$BDGSV,2,2,05,228,74,157,39*6F
$GPGSA,A,3,29,31,25,26,18,02,12,20,,,,,1.0,0.6,0.8*3D
$GNGSA,A,3,71,77,78,79,81,87,88,,,,,,1.0,0.6,0.8*22
$BDGSA,A,3,223,228,,,,,,,,,,,1.0,0.6,0.8*27
$GPRMC,074250.000,A,5159.4956,N,00422.2417,E,7.3,162.4,260621,,,A*6C
$GPGGA,074251.000,5159.4934,N,00422.2427,E,1,17,0.6,-6.9,M,47.1,M,,*7C
$GPGLL,5159.4934,N,00422.2427,E,074251.000,A,A*59
$GPVTG,160.1,T,,M,7.5,N,13.8,K,A*33
$GPGSV,3,1,10,02,17,039,41,04,10,330,18,05,05,094,29,12,13,104,41*7A
$GPGSV,3,2,10,18,21,172,42,20,12,083,39,25,47,107,43,26,31,289,25*76
$GPGSV,3,3,10,29,83,092,34,31,59,263,36,36,25,146,33*49
$GLGSV,2,1,07,71,07,019,26,77,18,134,23,78,75,131,30,79,46,315,26*60
$GLGSV,2,2,07,81,34,202,43,87,41,039,35,88,78,110,31*50
$BDGSV,2,1,05,205,06,113,35,208,27,036,35,223,27,146,40,227,32,156,40*67
$BDGSV,2,2,05,228,74,157,39*6F
$GPGSA,A,3,29,31,25,26,18,02,12,20,,,,,1.0,0.6,0.8*3D
$GNGSA,A,3,71,77,78,79,81,87,88,,,,,,1.0,0.6,0.8*22
$BDGSA,A,3,223,228,,,,,,,,,,,1.0,0.6,0.8*27
$GPRMC,074251.000,A,5159.4934,N,00422.2427,E,7.5,160.1,260621,,,A*6B
$GPGGA,074252.000,5159.4912,N,00422.2437,E,1,17,0.6,-7.1,M,47.1,M,,*73
$GPGLL,5159.4912,N,00422.2437,E,074252.000,A,A*5F
$GPVTG,156.9,T,,M,7.5,N,13.9,K,A*3F
$GPGSV,3,1,10,02,17,039,41,04,10,330,18,05,05,094,31,12,13,104,40*72
$GPGSV,3,2,10,18,21,172,42,20,12,083,39,25,47,107,43,26,31,289,25*76
$GPGSV,3,3,10,29,83,092,34,31,59,263,39,36,25,146,33*46
$GLGSV,2,1,07,71,07,019,29,77,18,134,23,78,75,131,30,79,46,315,26*6F
$GLGSV,2,2,07,81,34,202,43,87,41,039,34,88,78,110,31*51
$BDGSV,2,1,05,205,06,113,35,208,27,036,35,223,27,146,40,227,32,156,40*67
$BDGSV,2,2,05,228,74,157,39*6F
$GPGSA,A,3,29,31,25,26,18,02,12,20,,,,,1.0,0.6,0.8*3D
$GNGSA,A,3,71,77,78,79,81,87,88,,,,,,1.0,0.6,0.8*22
$BDGSA,A,3,223,228,,,,,,,,,,,1.0,0.6,0.8*27
$GPRMC,074252.000,A,5159.4912,N,00422.2437,E,7.5,156.9,260621,,,A*60
$GPGGA,074253.000,5159.4890,N,00422.2449,E,1,17,0.6,-8.0,M,47.1,M,,*7E
$GPGLL,5159.4890,N,00422.2449,E,074253.000,A,A*5C
$GPVTG,159.5,T,,M,7.8,N,14.5,K,A*3A
$GPGSV,3,1,10,02,17,039,41,04,10,330,18,05,05,094,33,12,13,104,40*70
$GPGSV,3,2,10,18,21,172,43,20,12,083,39,25,47,107,43,26,31,289,25*77
$GPGSV,3,3,10,29,83,092,34,31,59,263,40,36,25,146,33*48
$GLGSV,2,1,07,71,07,019,36,77,18,134,23,78,75,131,30,79,46,315,26*61
$GLGSV,2,2,07,81,34,202,43,87,41,039,34,88,78,110,31*51
$BDGSV,2,1,05,205,06,113,35,208,27,036,35,223,27,146,40,227,32,156,40*67
$BDGSV,2,2,05,228,74,157,39*6F
$GPGSA,A,3,29,31,25,26,18,02,12,20,,,,,1.0,0.6,0.8*3D
